{
  "features": [
    {
      "type": "Feature",
      "properties": {
        "Rowkey": "3470",
        "paddr": "162 Los Rios Rd",
        "Flag_Notes": "",
        "APName": "WolfSprings2a",
        "APGroup": "WolfSprings",
        "ColorCode": "small_blue",
        "Strength": "5"
      },
      "geometry": {
        "coordinates": [
          -105.69567,
          36.52688
        ],
        "type": "Point"
      },
      "id": "0039f0c5d1c6216c3a763e50693ef84c"
    },
    {
      "type": "Feature",
      "properties": {
        "Rowkey": "3033",
        "paddr": "622 Paseo Del Pueblo Sur",
        "Flag_Notes": "",
        "APName": "Winter1",
        "APGroup": "Winter",
        "ColorCode": "measle_turquoise",
        "Strength": "92"
      },
      "geometry": {
        "coordinates": [
          -105.57992,
          36.39473
        ],
        "type": "Point"
      },
      "id": "004c06c7c27a509067ec1e95b8fcecc4"
    },
    {
      "type": "Feature",
      "properties": {
        "Rowkey": "234",
        "paddr": "2 Star Lane GW",
        "Flag_Notes": "",
        "APName": "WolfSprings3",
        "APGroup": "WolfSprings",
        "ColorCode": "small_blue",
        "Strength": "90"
      },
      "geometry": {
        "coordinates": [
          -105.74959,
          36.51222
        ],
        "type": "Point"
      },
      "id": "005c5c57a07f78920a5518a90c39ff4c"
    },
    {
      "type": "Feature",
      "properties": {
        "Rowkey": "2707",
        "paddr": "Taosnet offices",
        "Flag_Notes": "",
        "APName": "HQ1",
        "APGroup": "HQ",
        "ColorCode": "small_blue",
        "Strength": "12"
      },
      "geometry": {
        "coordinates": [
          -105.58808,
          36.38766
        ],
        "type": "Point"
      },
      "id": "0089285c61469e4739655dddaf2e3f37"
    },
    {
      "type": "Feature",
      "properties": {
        "Rowkey": "3311",
        "paddr": "411 Herdner",
        "Flag_Notes": "",
        "APName": "BBHill6",
        "APGroup": "BBHill",
        "ColorCode": "small_red",
        "Strength": "58"
      },
      "geometry": {
        "coordinates": [
          -105.59335,
          36.39336
        ],
        "type": "Point"
      },
      "id": "00b1ecb4296a2ac2e38683a2495b1941"
    },
    {
      "type": "Feature",
      "properties": {
        "Rowkey": "1825",
        "paddr": "54 Montoya Road off West Rim",
        "Flag_Notes": "",
        "APName": "WolfSprings3",
        "APGroup": "WolfSprings",
        "ColorCode": "small_blue",
        "Strength": "25"
      },
      "geometry": {
        "coordinates": [
          -105.8048,
          36.48441
        ],
        "type": "Point"
      },
      "id": "00bca6b6d3751d49ec05b2b38ca3f3a4"
    },
    {
      "type": "Feature",
      "properties": {
        "Rowkey": "3093",
        "paddr": "1430 Santa Cruz Off Weimer",
        "Flag_Notes": "",
        "APName": "BBHill11",
        "APGroup": "BBHill",
        "ColorCode": "small_red",
        "Strength": "67"
      },
      "geometry": {
        "coordinates": [
          -105.57366,
          36.3618
        ],
        "type": "Point"
      },
      "id": "0113b5b7e8633ccb543cdb78bd06b1aa"
    },
    {
      "type": "Feature",
      "properties": {
        "Rowkey": "1530",
        "paddr": "1948 old state road 3 Lama Antenna mounted on solar panelsGo right at T. 8/10 mile down.",
        "Flag_Notes": "",
        "APName": "WolfSprings2a",
        "APGroup": "WolfSprings",
        "ColorCode": "small_blue",
        "Strength": "52"
      },
      "geometry": {
        "coordinates": [
          -105.61951,
          36.64957
        ],
        "type": "Point"
      },
      "id": "011e0f81ecf9900df62f080f4e05c501"
    },
    {
      "type": "Feature",
      "properties": {
        "Rowkey": "1859",
        "paddr": "27 Camino Campana. Golf course road to Arroyos road. Right on Campana. Latilla horse fence",
        "Flag_Notes": "",
        "APName": "Stakeout1",
        "APGroup": "Stakeout",
        "ColorCode": "small_purple",
        "Strength": "89"
      },
      "geometry": {
        "coordinates": [
          -105.64011,
          36.35177
        ],
        "type": "Point"
      },
      "id": "01b30c1cfc429657b847d55826a3d44f"
    },
    {
      "type": "Feature",
      "properties": {
        "Rowkey": "1902",
        "paddr": "704 Hwy 196 amalia",
        "Flag_Notes": "",
        "APName": "Amalia1",
        "APGroup": "Amalia",
        "ColorCode": "small_purple",
        "Strength": "92"
      },
      "geometry": {
        "coordinates": [
          -105.44362,
          36.93071
        ],
        "type": "Point"
      },
      "id": "01b9f9016399d352f36541b65e0961b3"
    },
    {
      "type": "Feature",
      "properties": {
        "Rowkey": "1500",
        "paddr": "Wheeler Peak Condos Building 2 Unit 206 TSV",
        "Flag_Notes": "",
        "APName": "MineSlide1",
        "APGroup": "MineSlide",
        "ColorCode": "small_yellow",
        "Strength": "33"
      },
      "geometry": {
        "coordinates": [
          -105.43907,
          36.58062
        ],
        "type": "Point"
      },
      "id": "01f90a2ababf513f2f6027f06c3798a1"
    },
    {
      "type": "Feature",
      "properties": {
        "Rowkey": "3275",
        "paddr": "902 Vista Primvera",
        "Flag_Notes": "",
        "APName": "BBHill11",
        "APGroup": "BBHill",
        "ColorCode": "small_red",
        "Strength": "34"
      },
      "geometry": {
        "coordinates": [
          -105.57566,
          36.38475
        ],
        "type": "Point"
      },
      "id": "0212023104ae7c1095107c162471cb55"
    },
    {
      "type": "Feature",
      "properties": {
        "Rowkey": "700",
        "paddr": "47 los Altos",
        "Flag_Notes": "",
        "APName": "ElSalto2",
        "APGroup": "ElSalto",
        "ColorCode": "small_green",
        "Strength": "43"
      },
      "geometry": {
        "coordinates": [
          -105.56876,
          36.52693
        ],
        "type": "Point"
      },
      "id": "022aff89242526b2744976169cb7f46e"
    },
    {
      "type": "Feature",
      "properties": {
        "Rowkey": "2728",
        "paddr": "27 Valencia Road",
        "Flag_Notes": "",
        "APName": "TNN1",
        "APGroup": "TNN",
        "ColorCode": "measle_brown",
        "Strength": "72"
      },
      "geometry": {
        "coordinates": [
          -105.59894,
          36.49557
        ],
        "type": "Point"
      },
      "id": "022e6173368dc82cfecd22fb2e1b8fed"
    },
    {
      "type": "Feature",
      "properties": {
        "Rowkey": "1481",
        "paddr": "Loma Parda Above family youth center",
        "Flag_Notes": "",
        "APName": "Talpa3",
        "APGroup": "Talpa",
        "ColorCode": "small_yellow",
        "Strength": "82"
      },
      "geometry": {
        "coordinates": [
          -105.57075,
          36.37785
        ],
        "type": "Point"
      },
      "id": "028422cb52cb8fa78c5f0de259b2e20a"
    },
    {
      "type": "Feature",
      "properties": {
        "Rowkey": "1010",
        "paddr": "30 Lobo road at the studio",
        "Flag_Notes": "",
        "APName": "ElSalto1",
        "APGroup": "ElSalto",
        "ColorCode": "small_green",
        "Strength": "46"
      },
      "geometry": {
        "coordinates": [
          -105.64887,
          36.53762
        ],
        "type": "Point"
      },
      "id": "02848e7a88ce8c7de165508e1014f34f"
    },
    {
      "type": "Feature",
      "properties": {
        "Rowkey": "1104",
        "paddr": "108 Lobo Ranch Road",
        "Flag_Notes": "",
        "APName": "ElSalto3",
        "APGroup": "ElSalto",
        "ColorCode": "small_green",
        "Strength": "65"
      },
      "geometry": {
        "coordinates": [
          -105.64356,
          36.54522
        ],
        "type": "Point"
      },
      "id": "02a81613f8ae2a99158f7d745b78a731"
    },
    {
      "type": "Feature",
      "properties": {
        "Rowkey": "2010",
        "paddr": "33 Snowshoe road",
        "Flag_Notes": "",
        "APName": "TSV2",
        "APGroup": "TSV",
        "ColorCode": "small_red",
        "Strength": "87"
      },
      "geometry": {
        "coordinates": [
          -105.44377,
          36.59794
        ],
        "type": "Point"
      },
      "id": "02ed04dac75630ddebe7857d3d2eab5c"
    },
    {
      "type": "Feature",
      "properties": {
        "Rowkey": "2701",
        "paddr": "7 South Lemuria. Gravel Pit",
        "Flag_Notes": "",
        "APName": "WolfSprings2",
        "APGroup": "WolfSprings",
        "ColorCode": "small_blue",
        "Strength": "26"
      },
      "geometry": {
        "coordinates": [
          -105.75359,
          36.51605
        ],
        "type": "Point"
      },
      "id": "0320b3feaba59f69432518ac67cbb9fc"
    },
    {
      "type": "Feature",
      "properties": {
        "Rowkey": "1684",
        "paddr": "177 quintana road. El Rito. tkae latir to top of road go right on right hand side.",
        "Flag_Notes": "",
        "APName": "ElRito1",
        "APGroup": "ElRito",
        "ColorCode": "small_red",
        "Strength": "78"
      },
      "geometry": {
        "coordinates": [
          -105.56757,
          36.82248
        ],
        "type": "Point"
      },
      "id": "033a2c21a5087f09ed50501cb7eec7f5"
    },
    {
      "type": "Feature",
      "properties": {
        "Rowkey": "4015",
        "paddr": "141 Tune Dr",
        "Flag_Notes": "",
        "APName": "WolfSprings2",
        "APGroup": "WolfSprings",
        "ColorCode": "small_blue",
        "Strength": "1"
      },
      "geometry": {
        "coordinates": [
          -105.69793,
          36.4928
        ],
        "type": "Point"
      },
      "id": "035d59a9f791167f56ae7d8d16257371"
    },
    {
      "type": "Feature",
      "properties": {
        "Rowkey": "3225",
        "paddr": "18A camino de los vecinos",
        "Flag_Notes": "",
        "APName": "Stakeout3",
        "APGroup": "Stakeout",
        "ColorCode": "small_purple",
        "Strength": "55"
      },
      "geometry": {
        "coordinates": [
          -105.65176,
          36.37229
        ],
        "type": "Point"
      },
      "id": "038806f5134cb333ecc9a224e11e1c3f"
    },
    {
      "type": "Feature",
      "properties": {
        "Rowkey": "717",
        "paddr": "43 Duval Rd in Turley Mill",
        "Flag_Notes": "",
        "APName": "TurleyMill",
        "APGroup": "TurleyMill",
        "ColorCode": "measle_turquoise",
        "Strength": "13"
      },
      "geometry": {
        "coordinates": [
          -105.62746,
          36.54218
        ],
        "type": "Point"
      },
      "id": "039be69e88d56060d29b2fc9c19c8922"
    },
    {
      "type": "Feature",
      "properties": {
        "Rowkey": "2732",
        "paddr": "40 Rim View Road off cuchilla",
        "Flag_Notes": "",
        "APName": "BBHill6",
        "APGroup": "BBHill",
        "ColorCode": "small_red",
        "Strength": "96"
      },
      "geometry": {
        "coordinates": [
          -105.63331,
          36.37642
        ],
        "type": "Point"
      },
      "id": "04441b1a24c9ac62794314996f2d89e3"
    },
    {
      "type": "Feature",
      "properties": {
        "Rowkey": "3751",
        "paddr": "39 Luz del Monte",
        "Flag_Notes": "",
        "APName": "BBHill7",
        "APGroup": "BBHill",
        "ColorCode": "small_red",
        "Strength": "7"
      },
      "geometry": {
        "coordinates": [
          -105.61977,
          36.43991
        ],
        "type": "Point"
      },
      "id": "04befddffac5945e42448869b886c908"
    },
    {
      "type": "Feature",
      "properties": {
        "Rowkey": "1327",
        "paddr": "205 Mesa Sea rd. off B-007",
        "Flag_Notes": "",
        "APName": "ElSalto4",
        "APGroup": "ElSalto",
        "ColorCode": "small_green",
        "Strength": "3"
      },
      "geometry": {
        "coordinates": [
          -105.65394,
          36.49786
        ],
        "type": "Point"
      },
      "id": "04e0a94fa39b89a1ed8e7f9662053274"
    },
    {
      "type": "Feature",
      "properties": {
        "Rowkey": "657",
        "paddr": "#37 Carlitos Road",
        "Flag_Notes": "",
        "APName": "SanCristobal2",
        "APGroup": "SanCristobal",
        "ColorCode": "small_green",
        "Strength": "11"
      },
      "geometry": {
        "coordinates": [
          -105.65488,
          36.58632
        ],
        "type": "Point"
      },
      "id": "051d629402ae55fe65c5e1075af418e3"
    },
    {
      "type": "Feature",
      "properties": {
        "Rowkey": "1351",
        "paddr": "#5 Narciciso road off b-006",
        "Flag_Notes": "",
        "APName": "Hondo3",
        "APGroup": "Hondo",
        "ColorCode": "small_yellow",
        "Strength": "80"
      },
      "geometry": {
        "coordinates": [
          -105.67545,
          36.52425
        ],
        "type": "Point"
      },
      "id": "0571c64837745858028ccc373791500f"
    },
    {
      "type": "Feature",
      "properties": {
        "Rowkey": "1623",
        "paddr": "1027 Calle de Oro",
        "Flag_Notes": "",
        "APName": "BBHill6",
        "APGroup": "BBHill",
        "ColorCode": "small_red",
        "Strength": "74"
      },
      "geometry": {
        "coordinates": [
          -105.58088,
          36.38656
        ],
        "type": "Point"
      },
      "id": "05729bc8811385672235750598210be8"
    },
    {
      "type": "Feature",
      "properties": {
        "Rowkey": "2972",
        "paddr": "Unit #5 Venado Plaza",
        "Flag_Notes": "",
        "APName": "ElSalto1",
        "APGroup": "ElSalto",
        "ColorCode": "small_green",
        "Strength": "46"
      },
      "geometry": {
        "coordinates": [
          -105.5941,
          36.47076
        ],
        "type": "Point"
      },
      "id": "05a11d8db9a7e4a243014dcc610bb9f2"
    },
    {
      "type": "Feature",
      "properties": {
        "Rowkey": "1669",
        "paddr": "#12 Hondo Seco Road",
        "Flag_Notes": "",
        "APName": "Hondo3",
        "APGroup": "Hondo",
        "ColorCode": "small_yellow",
        "Strength": "43"
      },
      "geometry": {
        "coordinates": [
          -105.64955,
          36.53408
        ],
        "type": "Point"
      },
      "id": "05ba2992901f3bd747b4ae7db002d4ad"
    },
    {
      "type": "Feature",
      "properties": {
        "Rowkey": "2399",
        "paddr": "170A  Cuchilla Road",
        "Flag_Notes": "",
        "APName": "Talpa2",
        "APGroup": "Talpa",
        "ColorCode": "small_yellow",
        "Strength": "100"
      },
      "geometry": {
        "coordinates": [
          -105.62654,
          36.37094
        ],
        "type": "Point"
      },
      "id": "05e402c3cd770322e78eb971ec0faff5"
    },
    {
      "type": "Feature",
      "properties": {
        "Rowkey": "1716",
        "paddr": "14 Spotted Owl road san cristobal.",
        "Flag_Notes": "",
        "APName": "SanCristobal2",
        "APGroup": "SanCristobal",
        "ColorCode": "small_green",
        "Strength": "73"
      },
      "geometry": {
        "coordinates": [
          -105.65663,
          36.59292
        ],
        "type": "Point"
      },
      "id": "0614e78b26e54e9f6b8feb4c0632b254"
    },
    {
      "type": "Feature",
      "properties": {
        "Rowkey": "2852",
        "paddr": "56 Santistevan road",
        "Flag_Notes": "",
        "APName": "Talpa1",
        "APGroup": "Talpa",
        "ColorCode": "small_yellow",
        "Strength": "62"
      },
      "geometry": {
        "coordinates": [
          -105.6365,
          36.45756
        ],
        "type": "Point"
      },
      "id": "063637cb0398345374351bb1fb578e40"
    },
    {
      "type": "Feature",
      "properties": {
        "Rowkey": "1403",
        "paddr": "323 State Road 240",
        "Flag_Notes": "",
        "APName": "Talpa1",
        "APGroup": "Talpa",
        "ColorCode": "small_yellow",
        "Strength": "28"
      },
      "geometry": {
        "coordinates": [
          -105.62613,
          36.39284
        ],
        "type": "Point"
      },
      "id": "063fb9d24f44eb66ba053dee3491ab25"
    },
    {
      "type": "Feature",
      "properties": {
        "Rowkey": "2923",
        "paddr": "914 State Hwy 570",
        "Flag_Notes": "",
        "APName": "Stakeout3",
        "APGroup": "Stakeout",
        "ColorCode": "small_purple",
        "Strength": "7"
      },
      "geometry": {
        "coordinates": [
          -105.70066,
          36.34997
        ],
        "type": "Point"
      },
      "id": "0667129aa4b29aa60ca34557072900c6"
    },
    {
      "type": "Feature",
      "properties": {
        "Rowkey": "3991",
        "paddr": "1117 Camino del Medio - Off of 240 & Camino del Medio at big tree stump take right follow road all the way back",
        "Flag_Notes": "",
        "APName": "Stakeout3",
        "APGroup": "Stakeout",
        "ColorCode": "small_purple",
        "Strength": "89"
      },
      "geometry": {
        "coordinates": [
          -105.61914,
          36.37333
        ],
        "type": "Point"
      },
      "id": "067c0d39c589bf1c8e6175e6bc73eaa0"
    },
    {
      "type": "Feature",
      "properties": {
        "Rowkey": "1213",
        "paddr": "#2 Bullsnake road. down las colonias from BBhill take first right",
        "Flag_Notes": "",
        "APName": "BBHill4",
        "APGroup": "BBHill",
        "ColorCode": "small_red",
        "Strength": "55"
      },
      "geometry": {
        "coordinates": [
          -105.61989,
          36.41729
        ],
        "type": "Point"
      },
      "id": "06878cb2b8300e752835161f6b07c93d"
    },
    {
      "type": "Feature",
      "properties": {
        "Rowkey": "1775",
        "paddr": "TSV Resort Center Network Room",
        "Flag_Notes": "",
        "APName": "TSV1",
        "APGroup": "TSV",
        "ColorCode": "small_red",
        "Strength": "40"
      },
      "geometry": {
        "coordinates": [
          -105.44977,
          36.5946
        ],
        "type": "Point"
      },
      "id": "0690edb90aace46ecb0420bffbf58b90"
    },
    {
      "type": "Feature",
      "properties": {
        "Rowkey": "1504",
        "paddr": "69 coyote road off el salto",
        "Flag_Notes": "",
        "APName": "WolfSprings2",
        "APGroup": "WolfSprings",
        "ColorCode": "small_blue",
        "Strength": "27"
      },
      "geometry": {
        "coordinates": [
          -105.55037,
          36.52909
        ],
        "type": "Point"
      },
      "id": "06bd0be2b35e9b4631a5e05bef553a03"
    },
    {
      "type": "Feature",
      "properties": {
        "Rowkey": "2283",
        "paddr": "15C Atilano Road El PRado",
        "Flag_Notes": "",
        "APName": "Talpa1",
        "APGroup": "Talpa",
        "ColorCode": "small_yellow",
        "Strength": "46"
      },
      "geometry": {
        "coordinates": [
          -105.58493,
          36.44652
        ],
        "type": "Point"
      },
      "id": "06cf5fea79eb0b3d898f9a52196c7400"
    },
    {
      "type": "Feature",
      "properties": {
        "Rowkey": "2088",
        "paddr": "39 April Way",
        "Flag_Notes": "",
        "APName": "Talpa4",
        "APGroup": "Talpa",
        "ColorCode": "small_yellow",
        "Strength": "4"
      },
      "geometry": {
        "coordinates": [
          -105.62249,
          36.43747
        ],
        "type": "Point"
      },
      "id": "06f2fb4651150aa929d38a29c21aafaa"
    },
    {
      "type": "Feature",
      "properties": {
        "Rowkey": "640",
        "paddr": "TSV Cabinet-LAN",
        "Flag_Notes": "",
        "APName": "TSV1",
        "APGroup": "TSV",
        "ColorCode": "small_red",
        "Strength": "58"
      },
      "geometry": {
        "coordinates": [
          -105.44996,
          36.59495
        ],
        "type": "Point"
      },
      "id": "06f97fda1462138d3e071c71dddc91bd"
    },
    {
      "type": "Feature",
      "properties": {
        "Rowkey": "1760",
        "paddr": "1074 Camino del Medio",
        "Flag_Notes": "",
        "APName": "BBHill4",
        "APGroup": "BBHill",
        "ColorCode": "small_red",
        "Strength": "27"
      },
      "geometry": {
        "coordinates": [
          -105.6158,
          36.37772
        ],
        "type": "Point"
      },
      "id": "06fe90ae9105f12044f0e8b24e98c8fa"
    },
    {
      "type": "Feature",
      "properties": {
        "Rowkey": "3718",
        "paddr": "28 Camino de los Vecinos",
        "Flag_Notes": "",
        "APName": "Talpa4",
        "APGroup": "Talpa",
        "ColorCode": "small_yellow",
        "Strength": "17"
      },
      "geometry": {
        "coordinates": [
          -105.65181,
          36.37156
        ],
        "type": "Point"
      },
      "id": "07083de28a4103d2705a526320b18c8b"
    },
    {
      "type": "Feature",
      "properties": {
        "Rowkey": "2319",
        "paddr": "144 Camino del Medio 146 is better marked on same driveway. Go right at Studio sign.",
        "Flag_Notes": "",
        "APName": "WolfSprings2",
        "APGroup": "WolfSprings",
        "ColorCode": "small_blue",
        "Strength": "9"
      },
      "geometry": {
        "coordinates": [
          -105.64277,
          36.59559
        ],
        "type": "Point"
      },
      "id": "0715d1a32a0a024621b971469bf5a8e6"
    },
    {
      "type": "Feature",
      "properties": {
        "Rowkey": "3687",
        "paddr": "147A Lower Las Colonias Rd",
        "Flag_Notes": "",
        "APName": "BBHill7",
        "APGroup": "BBHill",
        "ColorCode": "small_red",
        "Strength": "61"
      },
      "geometry": {
        "coordinates": [
          -105.61746,
          36.43872
        ],
        "type": "Point"
      },
      "id": "07308e0367e20aec0d4279ba241e2cd9"
    },
    {
      "type": "Feature",
      "properties": {
        "Rowkey": "3789",
        "paddr": "97 Lower Los Colonias Rd.",
        "Flag_Notes": "",
        "APName": "BBHill7",
        "APGroup": "BBHill",
        "ColorCode": "small_red",
        "Strength": "34"
      },
      "geometry": {
        "coordinates": [
          -105.61573,
          36.44266
        ],
        "type": "Point"
      },
      "id": "0730c918fc7790d2243262f9f18abdf2"
    },
    {
      "type": "Feature",
      "properties": {
        "Rowkey": "2910",
        "paddr": "263 Los Cordovas Rd",
        "Flag_Notes": "",
        "APName": "Talpa2",
        "APGroup": "Talpa",
        "ColorCode": "small_yellow",
        "Strength": "73"
      },
      "geometry": {
        "coordinates": [
          -105.65727,
          36.36864
        ],
        "type": "Point"
      },
      "id": "07437af460ae3d91ccddb204931eb37e"
    },
    {
      "type": "Feature",
      "properties": {
        "Rowkey": "2449",
        "paddr": "17 Lone Tree Ln",
        "Flag_Notes": "",
        "APName": "WolfSprings3",
        "APGroup": "WolfSprings",
        "ColorCode": "small_blue",
        "Strength": "17"
      },
      "geometry": {
        "coordinates": [
          -105.75213,
          36.50007
        ],
        "type": "Point"
      },
      "id": "077073a18f882dbff109315ce69f5de1"
    },
    {
      "type": "Feature",
      "properties": {
        "Rowkey": "552",
        "paddr": "TSV",
        "Flag_Notes": "",
        "APName": "MineSlide3",
        "APGroup": "MineSlide",
        "ColorCode": "small_yellow",
        "Strength": "43"
      },
      "geometry": {
        "coordinates": [
          -105.4502,
          36.59493
        ],
        "type": "Point"
      },
      "id": "07b4ffff56aea4b4112546297acb2943"
    },
    {
      "type": "Feature",
      "properties": {
        "Rowkey": "3746",
        "paddr": "1539 Weimer Rd",
        "Flag_Notes": "",
        "APName": "BBHill6",
        "APGroup": "BBHill",
        "ColorCode": "small_red",
        "Strength": "51"
      },
      "geometry": {
        "coordinates": [
          -105.56357,
          36.37623
        ],
        "type": "Point"
      },
      "id": "07ea576e80a2118ce1dfafdfdf7d6c7f"
    },
    {
      "type": "Feature",
      "properties": {
        "Rowkey": "1094",
        "paddr": "221 Gallina Canyon Rd",
        "Flag_Notes": "",
        "APName": "WolfSprings2a",
        "APGroup": "WolfSprings",
        "ColorCode": "small_blue",
        "Strength": "3"
      },
      "geometry": {
        "coordinates": [
          -105.59601,
          36.54679
        ],
        "type": "Point"
      },
      "id": "08375f3bb589471754a225a38bbac729"
    },
    {
      "type": "Feature",
      "properties": {
        "Rowkey": "1847",
        "paddr": "Lonestar",
        "Flag_Notes": "",
        "APName": "LoneStar1",
        "APGroup": "LoneStar",
        "ColorCode": "measle_turquoise",
        "Strength": "1"
      },
      "geometry": {
        "coordinates": [
          -105.44899,
          36.57426
        ],
        "type": "Point"
      },
      "id": "08464138a82eb805b4960a5c20e49f8f"
    },
    {
      "type": "Feature",
      "properties": {
        "Rowkey": "398",
        "paddr": "3 Tierra Madre ..Off Reynolds Rd.",
        "Flag_Notes": "",
        "APName": "TNN1",
        "APGroup": "TNN",
        "ColorCode": "measle_brown",
        "Strength": "85"
      },
      "geometry": {
        "coordinates": [
          -105.61124,
          36.46691
        ],
        "type": "Point"
      },
      "id": "085cc82e119da535967106e519fe499a"
    },
    {
      "type": "Feature",
      "properties": {
        "Rowkey": "2499",
        "paddr": "110 Upper Los Colonias",
        "Flag_Notes": "",
        "APName": "ElSalto1",
        "APGroup": "ElSalto",
        "ColorCode": "small_green",
        "Strength": "3"
      },
      "geometry": {
        "coordinates": [
          -105.60341,
          36.46724
        ],
        "type": "Point"
      },
      "id": "08664648952fe1ffacf6e04dfa86e37f"
    },
    {
      "type": "Feature",
      "properties": {
        "Rowkey": "2281",
        "paddr": "1018 reed street last unit in back",
        "Flag_Notes": "",
        "APName": "VigilUbnt1",
        "APGroup": "VigilUbnt",
        "ColorCode": "measle_white",
        "Strength": "42"
      },
      "geometry": {
        "coordinates": [
          -105.58877,
          36.38435
        ],
        "type": "Point"
      },
      "id": "08667f59093c489fb81d4ad8f2d1aa63"
    },
    {
      "type": "Feature",
      "properties": {
        "Rowkey": "3015",
        "paddr": "133 Verdolaga Road",
        "Flag_Notes": "",
        "APName": "BBHill10",
        "APGroup": "BBHill",
        "ColorCode": "small_red",
        "Strength": "90"
      },
      "geometry": {
        "coordinates": [
          -105.63512,
          36.4348
        ],
        "type": "Point"
      },
      "id": "08c73c4d1c67da83d0e3ec54c66d5366"
    },
    {
      "type": "Feature",
      "properties": {
        "Rowkey": "3888",
        "paddr": "194 Valencia Rd #16",
        "Flag_Notes": "",
        "APName": "ElSalto1",
        "APGroup": "ElSalto",
        "ColorCode": "small_green",
        "Strength": "15"
      },
      "geometry": {
        "coordinates": [
          -105.6091,
          36.47313
        ],
        "type": "Point"
      },
      "id": "08eb367b1111ca5966cd880a6c72ded3"
    },
    {
      "type": "Feature",
      "properties": {
        "Rowkey": "395",
        "paddr": "156 Los Rios rd",
        "Flag_Notes": "",
        "APName": "WolfSprings2",
        "APGroup": "WolfSprings",
        "ColorCode": "small_blue",
        "Strength": "52"
      },
      "geometry": {
        "coordinates": [
          -105.69212,
          36.52473
        ],
        "type": "Point"
      },
      "id": "098c1cdb05657b5ee7e86a1e07728d55"
    },
    {
      "type": "Feature",
      "properties": {
        "Rowkey": "3066",
        "paddr": "94 Sangre De Cristo Road off Tres Lomas off 522 Hondo",
        "Flag_Notes": "",
        "APName": "WolfSprings2",
        "APGroup": "WolfSprings",
        "ColorCode": "small_blue",
        "Strength": "44"
      },
      "geometry": {
        "coordinates": [
          -105.67893,
          36.55903
        ],
        "type": "Point"
      },
      "id": "09974b3cbceaef899b979617a9587a96"
    },
    {
      "type": "Feature",
      "properties": {
        "Rowkey": "186",
        "paddr": "55 Cerito Colorado. On Mellingers Road",
        "Flag_Notes": "",
        "APName": "Tarlton3",
        "APGroup": "Tarlton",
        "ColorCode": "measle_grey",
        "Strength": "57"
      },
      "geometry": {
        "coordinates": [
          -105.57183,
          36.54037
        ],
        "type": "Point"
      },
      "id": "09a3d451e4218879bb1b3f4329c0ad75"
    },
    {
      "type": "Feature",
      "properties": {
        "Rowkey": "3306",
        "paddr": "11 Nacoma",
        "Flag_Notes": "",
        "APName": "Tarlton2",
        "APGroup": "Tarlton",
        "ColorCode": "measle_grey",
        "Strength": "27"
      },
      "geometry": {
        "coordinates": [
          -105.60166,
          36.47335
        ],
        "type": "Point"
      },
      "id": "09d82934d3cdc1f7c09f32f69a78d261"
    },
    {
      "type": "Feature",
      "properties": {
        "Rowkey": "3226",
        "paddr": "153 Blueberry Hill",
        "Flag_Notes": "",
        "APName": "BBHill6",
        "APGroup": "BBHill",
        "ColorCode": "small_red",
        "Strength": "57"
      },
      "geometry": {
        "coordinates": [
          -105.62108,
          36.4097
        ],
        "type": "Point"
      },
      "id": "0a0c0748c3fc09479f6444d7d89b9fc9"
    },
    {
      "type": "Feature",
      "properties": {
        "Rowkey": "2603",
        "paddr": "205 Herdner Road",
        "Flag_Notes": "",
        "APName": "Talpa3",
        "APGroup": "Talpa",
        "ColorCode": "small_yellow",
        "Strength": "57"
      },
      "geometry": {
        "coordinates": [
          -105.58312,
          36.39002
        ],
        "type": "Point"
      },
      "id": "0a113a0055248db17a6871f25341ba48"
    },
    {
      "type": "Feature",
      "properties": {
        "Rowkey": "1075",
        "paddr": "44 Carlitos rd.  South end of town. Go to end of road",
        "Flag_Notes": "",
        "APName": "SanCristobal1",
        "APGroup": "SanCristobal",
        "ColorCode": "small_green",
        "Strength": "97"
      },
      "geometry": {
        "coordinates": [
          -105.65613,
          36.58823
        ],
        "type": "Point"
      },
      "id": "0a1d3e94c01376568c0116dd83cc4d29"
    },
    {
      "type": "Feature",
      "properties": {
        "Rowkey": "1506",
        "paddr": "44 mariposa road off hondo swco road",
        "Flag_Notes": "",
        "APName": "TNN4",
        "APGroup": "TNN",
        "ColorCode": "measle_brown",
        "Strength": "68"
      },
      "geometry": {
        "coordinates": [
          -105.61637,
          36.49342
        ],
        "type": "Point"
      },
      "id": "0a5790b91eb123eeac06b6b8d390fe2a"
    },
    {
      "type": "Feature",
      "properties": {
        "Rowkey": "1858",
        "paddr": "47 Sarita road off Los Cordovas.",
        "Flag_Notes": "",
        "APName": "BBHill11",
        "APGroup": "BBHill",
        "ColorCode": "small_red",
        "Strength": "59"
      },
      "geometry": {
        "coordinates": [
          -105.63781,
          36.38114
        ],
        "type": "Point"
      },
      "id": "0a5d5a891ff5ffa43b25d96b0b7bd25e"
    },
    {
      "type": "Feature",
      "properties": {
        "Rowkey": "1523",
        "paddr": "Wheeler Peak Condos Building #2 Unit 204 David Borns",
        "Flag_Notes": "",
        "APName": "Top7a1",
        "APGroup": "Top7a1",
        "ColorCode": "measle_turquoise",
        "Strength": "3"
      },
      "geometry": {
        "coordinates": [
          -105.43924,
          36.58062
        ],
        "type": "Point"
      },
      "id": "0a9bf8dea39c8a4bbf8242d76caa7bdb"
    },
    {
      "type": "Feature",
      "properties": {
        "Rowkey": "230",
        "paddr": "95 El Mirador At stakeout drive - take right then first driveway right",
        "Flag_Notes": "",
        "APName": "Stakeout3",
        "APGroup": "Stakeout",
        "ColorCode": "small_purple",
        "Strength": "53"
      },
      "geometry": {
        "coordinates": [
          -105.67583,
          36.32968
        ],
        "type": "Point"
      },
      "id": "0a9e36ad7562255dd07655f4885d3c07"
    },
    {
      "type": "Feature",
      "properties": {
        "Rowkey": "627",
        "paddr": "Colonias Point across from Olguins",
        "Flag_Notes": "",
        "APName": "ElSalto4",
        "APGroup": "ElSalto",
        "ColorCode": "small_green",
        "Strength": "48"
      },
      "geometry": {
        "coordinates": [
          -105.61519,
          36.45955
        ],
        "type": "Point"
      },
      "id": "0aadff0d158f3040dcb27cc1640010d8"
    },
    {
      "type": "Feature",
      "properties": {
        "Rowkey": "3674",
        "paddr": "306 Rim Rd Seco.  All the way to the end south door",
        "Flag_Notes": "",
        "APName": "WolfSprings2a",
        "APGroup": "WolfSprings",
        "ColorCode": "small_blue",
        "Strength": "54"
      },
      "geometry": {
        "coordinates": [
          -105.62304,
          36.53466
        ],
        "type": "Point"
      },
      "id": "0b28eb66d5641b5fac3bd909bfcb77db"
    },
    {
      "type": "Feature",
      "properties": {
        "Rowkey": "430",
        "paddr": "274 Overjeros road. Green porch. Solar panels on garage.",
        "Flag_Notes": "",
        "APName": "ElSalto2",
        "APGroup": "ElSalto",
        "ColorCode": "small_green",
        "Strength": "36"
      },
      "geometry": {
        "coordinates": [
          -105.63287,
          36.47851
        ],
        "type": "Point"
      },
      "id": "0b80c95d617a73109e3e450dae23ee53"
    },
    {
      "type": "Feature",
      "properties": {
        "Rowkey": "3029",
        "paddr": "Wheeler peak Condos building 1 Unit 101",
        "Flag_Notes": "",
        "APName": "Top7a1",
        "APGroup": "Top7a1",
        "ColorCode": "measle_turquoise",
        "Strength": "18"
      },
      "geometry": {
        "coordinates": [
          -105.43861,
          36.58029
        ],
        "type": "Point"
      },
      "id": "0bb5110761ece2f6aeba3d286861bbc7"
    },
    {
      "type": "Feature",
      "properties": {
        "Rowkey": "2276",
        "paddr": "107 Mesa Sea",
        "Flag_Notes": "",
        "APName": "WolfSprings3",
        "APGroup": "WolfSprings",
        "ColorCode": "small_blue",
        "Strength": "49"
      },
      "geometry": {
        "coordinates": [
          -105.66696,
          36.50916
        ],
        "type": "Point"
      },
      "id": "0bc3bb23122a4b109a2549c784741bb4"
    },
    {
      "type": "Feature",
      "properties": {
        "Rowkey": "538",
        "paddr": "#8 Cottonwood ln - el salto",
        "Flag_Notes": "",
        "APName": "ElSalto4",
        "APGroup": "ElSalto",
        "ColorCode": "small_green",
        "Strength": "80"
      },
      "geometry": {
        "coordinates": [
          -105.55757,
          36.51867
        ],
        "type": "Point"
      },
      "id": "0be4649e80f295be8b9a8311675ec035"
    },
    {
      "type": "Feature",
      "properties": {
        "Rowkey": "3375",
        "paddr": "23 Calle de dona sinsorosa",
        "Flag_Notes": "",
        "APName": "ElSalto1",
        "APGroup": "ElSalto",
        "ColorCode": "small_green",
        "Strength": "2"
      },
      "geometry": {
        "coordinates": [
          -105.61803,
          36.46045
        ],
        "type": "Point"
      },
      "id": "0bf7ac766304f2e22bc758f90ceada1c"
    },
    {
      "type": "Feature",
      "properties": {
        "Rowkey": "1641",
        "paddr": "32a Mouse House road this is main house",
        "Flag_Notes": "",
        "APName": "TNN4",
        "APGroup": "TNN",
        "ColorCode": "measle_brown",
        "Strength": "9"
      },
      "geometry": {
        "coordinates": [
          -105.57592,
          36.52849
        ],
        "type": "Point"
      },
      "id": "0c2d8733fc6579c4f6cfb8ca9bbfcc91"
    },
    {
      "type": "Feature",
      "properties": {
        "Rowkey": "55",
        "paddr": "12 cordoniz rd off del norte",
        "Flag_Notes": "",
        "APName": "Tarlton2",
        "APGroup": "Tarlton",
        "ColorCode": "measle_grey",
        "Strength": "36"
      },
      "geometry": {
        "coordinates": [
          -105.5965,
          36.4751
        ],
        "type": "Point"
      },
      "id": "0c3da84b3997e6670972816346d74450"
    },
    {
      "type": "Feature",
      "properties": {
        "Rowkey": "3475",
        "paddr": "48 Percilla Rd",
        "Flag_Notes": "",
        "APName": "WolfSprings2a",
        "APGroup": "WolfSprings",
        "ColorCode": "small_blue",
        "Strength": "44"
      },
      "geometry": {
        "coordinates": [
          -105.55402,
          36.52057
        ],
        "type": "Point"
      },
      "id": "0c62089c512c35af9c774edfa47a7314"
    },
    {
      "type": "Feature",
      "properties": {
        "Rowkey": "3172",
        "paddr": "8 Happy Trails",
        "Flag_Notes": "",
        "APName": "GWDome",
        "APGroup": "GWDome",
        "ColorCode": "measle_turquoise",
        "Strength": "49"
      },
      "geometry": {
        "coordinates": [
          -105.7516,
          36.51066
        ],
        "type": "Point"
      },
      "id": "0cc9726e00c93cd6550ecf9c3afd5ab3"
    },
    {
      "type": "Feature",
      "properties": {
        "Rowkey": "3760",
        "paddr": "341A Avenida de Veronica",
        "Flag_Notes": "",
        "APName": "Talpa4",
        "APGroup": "Talpa",
        "ColorCode": "small_yellow",
        "Strength": "4"
      },
      "geometry": {
        "coordinates": [
          -105.66856,
          36.44914
        ],
        "type": "Point"
      },
      "id": "0d515e33c61f3136ccd5432d481919ef"
    },
    {
      "type": "Feature",
      "properties": {
        "Rowkey": "3304",
        "paddr": "tsv resort",
        "Flag_Notes": "",
        "APName": "TSV1",
        "APGroup": "TSV",
        "ColorCode": "small_red",
        "Strength": "66"
      },
      "geometry": {
        "coordinates": [
          -105.44997,
          36.59474
        ],
        "type": "Point"
      },
      "id": "0d6a2993c307f86ffca230108ca73b9e"
    },
    {
      "type": "Feature",
      "properties": {
        "Rowkey": "1808",
        "paddr": "Colorado Road",
        "Flag_Notes": "",
        "APName": "TresPiedras3",
        "APGroup": "TresPiedras",
        "ColorCode": "measle_white",
        "Strength": "85"
      },
      "geometry": {
        "coordinates": [
          -105.91049,
          36.62952
        ],
        "type": "Point"
      },
      "id": "0de6bc371c76a9f1ec4647b49f7195ad"
    },
    {
      "type": "Feature",
      "properties": {
        "Rowkey": "3326",
        "paddr": "22 Rocky Road",
        "Flag_Notes": "",
        "APName": "BBHill11",
        "APGroup": "BBHill",
        "ColorCode": "small_red",
        "Strength": "25"
      },
      "geometry": {
        "coordinates": [
          -105.62993,
          36.4005
        ],
        "type": "Point"
      },
      "id": "0df2d96fab7141ac3159a8ce1f3fa2ab"
    },
    {
      "type": "Feature",
      "properties": {
        "Rowkey": "3804",
        "paddr": "551 Cruz Alta / Christian Family Church",
        "Flag_Notes": "",
        "APName": "BBHill11",
        "APGroup": "BBHill",
        "ColorCode": "small_red",
        "Strength": "58"
      },
      "geometry": {
        "coordinates": [
          -105.56524,
          36.377
        ],
        "type": "Point"
      },
      "id": "0e080d72242ce4da8350ed999e2f1557"
    },
    {
      "type": "Feature",
      "properties": {
        "Rowkey": "3918",
        "paddr": "260  Gallina Canyon Rd",
        "Flag_Notes": "",
        "APName": "WolfSprings2",
        "APGroup": "WolfSprings",
        "ColorCode": "small_blue",
        "Strength": "93"
      },
      "geometry": {
        "coordinates": [
          -105.5962,
          36.54546
        ],
        "type": "Point"
      },
      "id": "0e0ec23bca69763f045529e4dad1d476"
    },
    {
      "type": "Feature",
      "properties": {
        "Rowkey": "2521",
        "paddr": "14 Two Rock Road",
        "Flag_Notes": "",
        "APName": "ElRito2",
        "APGroup": "ElRito",
        "ColorCode": "small_red",
        "Strength": "36"
      },
      "geometry": {
        "coordinates": [
          -105.56993,
          36.82447
        ],
        "type": "Point"
      },
      "id": "0e195b2ff202b200b54b0f49b45a0db4"
    },
    {
      "type": "Feature",
      "properties": {
        "Rowkey": "3923",
        "paddr": "17 Los Alamitos lane",
        "Flag_Notes": "",
        "APName": "BBHill11",
        "APGroup": "BBHill",
        "ColorCode": "small_red",
        "Strength": "31"
      },
      "geometry": {
        "coordinates": [
          -105.61997,
          36.41032
        ],
        "type": "Point"
      },
      "id": "0e64076409de8acbd18b9872e270da79"
    },
    {
      "type": "Feature",
      "properties": {
        "Rowkey": "113",
        "paddr": "1181 Benarda Garcia Lane",
        "Flag_Notes": "",
        "APName": "Talpa3",
        "APGroup": "Talpa",
        "ColorCode": "small_yellow",
        "Strength": "36"
      },
      "geometry": {
        "coordinates": [
          -105.56907,
          36.41792
        ],
        "type": "Point"
      },
      "id": "0e6d019b3a8121838dea6ce826545421"
    },
    {
      "type": "Feature",
      "properties": {
        "Rowkey": "970",
        "paddr": "52 Los Animas Rd off Hondo/Seco Rd from Arroyo Seco",
        "Flag_Notes": "",
        "APName": "ElSalto2",
        "APGroup": "ElSalto",
        "ColorCode": "small_green",
        "Strength": "46"
      },
      "geometry": {
        "coordinates": [
          -105.58416,
          36.52126
        ],
        "type": "Point"
      },
      "id": "0e6d6eaa007d7f4adea30f75adac46e8"
    },
    {
      "type": "Feature",
      "properties": {
        "Rowkey": "4010",
        "paddr": "205 Camino de la Merced 35",
        "Flag_Notes": "",
        "APName": "HQ1",
        "APGroup": "HQ",
        "ColorCode": "small_blue",
        "Strength": "87"
      },
      "geometry": {
        "coordinates": [
          -105.58709,
          36.38585
        ],
        "type": "Point"
      },
      "id": "0ea63ec25523b962a87dd69f9967a3be"
    },
    {
      "type": "Feature",
      "properties": {
        "Rowkey": "936",
        "paddr": "14 Happy Trail",
        "Flag_Notes": "",
        "APName": "WolfSprings2",
        "APGroup": "WolfSprings",
        "ColorCode": "small_blue",
        "Strength": "23"
      },
      "geometry": {
        "coordinates": [
          -105.75313,
          36.51016
        ],
        "type": "Point"
      },
      "id": "0f2a56ed068fa6318f5f704cf47b3b46"
    },
    {
      "type": "Feature",
      "properties": {
        "Rowkey": "2544",
        "paddr": "13 West Road near Taos Vet Clinic",
        "Flag_Notes": "",
        "APName": "ElSalto1",
        "APGroup": "ElSalto",
        "ColorCode": "small_green",
        "Strength": "33"
      },
      "geometry": {
        "coordinates": [
          -105.59931,
          36.46327
        ],
        "type": "Point"
      },
      "id": "0f6609595d99254805a8b0a620907367"
    },
    {
      "type": "Feature",
      "properties": {
        "Rowkey": "3313",
        "paddr": "1320 Paseo Del Pueblo Sur",
        "Flag_Notes": "",
        "APName": "Talpa3",
        "APGroup": "Talpa",
        "ColorCode": "small_yellow",
        "Strength": "43"
      },
      "geometry": {
        "coordinates": [
          -105.59233,
          36.3772
        ],
        "type": "Point"
      },
      "id": "0fc2c66c073a4a0a84893a9a410f4844"
    },
    {
      "type": "Feature",
      "properties": {
        "Rowkey": "53",
        "paddr": "1439 Higgins - wiemer to blumenshien to higgins",
        "Flag_Notes": "",
        "APName": "VigilUbnt1",
        "APGroup": "VigilUbnt",
        "ColorCode": "measle_white",
        "Strength": "28"
      },
      "geometry": {
        "coordinates": [
          -105.5705,
          36.36838
        ],
        "type": "Point"
      },
      "id": "0fc3c3870d912e0b75e276528a48d90f"
    },
    {
      "type": "Feature",
      "properties": {
        "Rowkey": "2967",
        "paddr": "Lake Fork Home Owners Association",
        "Flag_Notes": "",
        "APName": "MineSlide3",
        "APGroup": "MineSlide",
        "ColorCode": "small_yellow",
        "Strength": "65"
      },
      "geometry": {
        "coordinates": [
          -105.44809,
          36.59496
        ],
        "type": "Point"
      },
      "id": "0fe4a57b52bec3a12d72e535eb761106"
    },
    {
      "type": "Feature",
      "properties": {
        "Rowkey": "1154",
        "paddr": "hwy 64 to West Rim rd. Towards 2peaks. Take west rim road 2.9 miles. Turn left (east) 1st little earthship on right. Dome and separate shed",
        "Flag_Notes": "",
        "APName": "Talpa2",
        "APGroup": "Talpa",
        "ColorCode": "small_yellow",
        "Strength": "99"
      },
      "geometry": {
        "coordinates": [
          -105.74718,
          36.44241
        ],
        "type": "Point"
      },
      "id": "0fec8b70252bb18f47a9eff039d74aff"
    },
    {
      "type": "Feature",
      "properties": {
        "Rowkey": "2768",
        "paddr": "86 Mesa Sea Hondo Mesa. Next to Alpacas",
        "Flag_Notes": "",
        "APName": "WolfSprings2a",
        "APGroup": "WolfSprings",
        "ColorCode": "small_blue",
        "Strength": "55"
      },
      "geometry": {
        "coordinates": [
          -105.66737,
          36.50947
        ],
        "type": "Point"
      },
      "id": "1020c634a398193f0e073e5bae83c3dd"
    },
    {
      "type": "Feature",
      "properties": {
        "Rowkey": "3825",
        "paddr": "1267 Mesa Vista Rd",
        "Flag_Notes": "",
        "APName": "ElSalto1",
        "APGroup": "ElSalto",
        "ColorCode": "small_green",
        "Strength": "42"
      },
      "geometry": {
        "coordinates": [
          -105.60008,
          36.43502
        ],
        "type": "Point"
      },
      "id": "10274bf31b56c04eee4519b27cb27aba"
    },
    {
      "type": "Feature",
      "properties": {
        "Rowkey": "1267",
        "paddr": "#215 Mesa Sea 2 miles down right side",
        "Flag_Notes": "",
        "APName": "ElSalto3",
        "APGroup": "ElSalto",
        "ColorCode": "small_green",
        "Strength": "67"
      },
      "geometry": {
        "coordinates": [
          -105.65086,
          36.49525
        ],
        "type": "Point"
      },
      "id": "103d121d7a9d3ea81da6ccb5edac27a9"
    },
    {
      "type": "Feature",
      "properties": {
        "Rowkey": "1121",
        "paddr": "171 El Salto Road first left after marquez rd",
        "Flag_Notes": "",
        "APName": "WolfSprings2a",
        "APGroup": "WolfSprings",
        "ColorCode": "small_blue",
        "Strength": "81"
      },
      "geometry": {
        "coordinates": [
          -105.53867,
          36.52468
        ],
        "type": "Point"
      },
      "id": "10413432ca8438402261bf4acb53aed6"
    },
    {
      "type": "Feature",
      "properties": {
        "Rowkey": "2817",
        "paddr": "242 Tune Drive",
        "Flag_Notes": "",
        "APName": "WolfSprings2",
        "APGroup": "WolfSprings",
        "ColorCode": "small_blue",
        "Strength": "8"
      },
      "geometry": {
        "coordinates": [
          -105.70228,
          36.49635
        ],
        "type": "Point"
      },
      "id": "106aba5cbc281e24f678d989d8ded19a"
    },
    {
      "type": "Feature",
      "properties": {
        "Rowkey": "1959",
        "paddr": "8377 Cty Road B Jaroso",
        "Flag_Notes": "",
        "APName": "Amalia4",
        "APGroup": "Amalia",
        "ColorCode": "small_purple",
        "Strength": "66"
      },
      "geometry": {
        "coordinates": [
          -105.61876,
          37.0107
        ],
        "type": "Point"
      },
      "id": "10ac82177617cb612e2cb1cd0cc4c8e2"
    },
    {
      "type": "Feature",
      "properties": {
        "Rowkey": "2113",
        "paddr": "517 camino del Cielo up canyon heights to camino del cielo. top house canon heights",
        "Flag_Notes": "",
        "APName": "BBHill3",
        "APGroup": "BBHill",
        "ColorCode": "small_red",
        "Strength": "16"
      },
      "geometry": {
        "coordinates": [
          -105.55005,
          36.39082
        ],
        "type": "Point"
      },
      "id": "117c3150b0c04327b86f12eeacbcc796"
    },
    {
      "type": "Feature",
      "properties": {
        "Rowkey": "3748",
        "paddr": "3 Bent Bucket Rd. Last houseoff bean street",
        "Flag_Notes": "",
        "APName": "BBHill10",
        "APGroup": "BBHill",
        "ColorCode": "small_red",
        "Strength": "8"
      },
      "geometry": {
        "coordinates": [
          -105.77943,
          36.42223
        ],
        "type": "Point"
      },
      "id": "11975b6ee44e9af529192966d0f2d2cb"
    },
    {
      "type": "Feature",
      "properties": {
        "Rowkey": "1133",
        "paddr": "10 snowshoe rd  next right after mineslide. 2 story yellow stucc",
        "Flag_Notes": "",
        "APName": "TSV2",
        "APGroup": "TSV",
        "ColorCode": "small_red",
        "Strength": "83"
      },
      "geometry": {
        "coordinates": [
          -105.61224,
          36.46867
        ],
        "type": "Point"
      },
      "id": "11d914d8c1a32378ec5585f069ea228d"
    },
    {
      "type": "Feature",
      "properties": {
        "Rowkey": "2123",
        "paddr": "#25 Eototo",
        "Flag_Notes": "",
        "APName": "TNN4",
        "APGroup": "TNN",
        "ColorCode": "measle_brown",
        "Strength": "17"
      },
      "geometry": {
        "coordinates": [
          -105.60231,
          36.44398
        ],
        "type": "Point"
      },
      "id": "1248e275b50c65ff2edb65694b088060"
    },
    {
      "type": "Feature",
      "properties": {
        "Rowkey": "517",
        "paddr": "7 Big Horn Road. Last Driveway on right",
        "Flag_Notes": "",
        "APName": "TSV2",
        "APGroup": "TSV",
        "ColorCode": "small_red",
        "Strength": "22"
      },
      "geometry": {
        "coordinates": [
          -105.44766,
          36.5967
        ],
        "type": "Point"
      },
      "id": "126848c49695f601abff6d05ae929991"
    },
    {
      "type": "Feature",
      "properties": {
        "Rowkey": "1098",
        "paddr": "14 pueblo rd. 522 1 mile past OBL. Turn rt at Vets. about 1/2 mi",
        "Flag_Notes": "",
        "APName": "ElSalto4",
        "APGroup": "ElSalto",
        "ColorCode": "small_green",
        "Strength": "65"
      },
      "geometry": {
        "coordinates": [
          -105.60092,
          36.46482
        ],
        "type": "Point"
      },
      "id": "1293ca8450c41ae2845cb49da76a34bc"
    },
    {
      "type": "Feature",
      "properties": {
        "Rowkey": "94",
        "paddr": "1338 half  moon rd off mesa vista",
        "Flag_Notes": "",
        "APName": "BBHill7",
        "APGroup": "BBHill",
        "ColorCode": "small_red",
        "Strength": "47"
      },
      "geometry": {
        "coordinates": [
          -105.59652,
          36.4293
        ],
        "type": "Point"
      },
      "id": "12caa4d488f349f97607cf763374071d"
    },
    {
      "type": "Feature",
      "properties": {
        "Rowkey": "2766",
        "paddr": "22560 Hwy 64 Tres Piedras",
        "Flag_Notes": "",
        "APName": "TresPiedras1",
        "APGroup": "TresPiedras",
        "ColorCode": "measle_white",
        "Strength": "59"
      },
      "geometry": {
        "coordinates": [
          -105.97412,
          36.65093
        ],
        "type": "Point"
      },
      "id": "12f5cb9f113a23dc46909501a0d6f585"
    },
    {
      "type": "Feature",
      "properties": {
        "Rowkey": "386",
        "paddr": "28 gina lane 3 miles down tune drive",
        "Flag_Notes": "",
        "APName": "WolfSprings3",
        "APGroup": "WolfSprings",
        "ColorCode": "small_blue",
        "Strength": "43"
      },
      "geometry": {
        "coordinates": [
          -105.70058,
          36.49728
        ],
        "type": "Point"
      },
      "id": "1317688db7ae750ab42a31ecf28ed0a0"
    },
    {
      "type": "Feature",
      "properties": {
        "Rowkey": "622",
        "paddr": "13 Beuna Vista Rd",
        "Flag_Notes": "",
        "APName": "TNN1",
        "APGroup": "TNN",
        "ColorCode": "measle_brown",
        "Strength": "3"
      },
      "geometry": {
        "coordinates": [
          -105.60283,
          36.47039
        ],
        "type": "Point"
      },
      "id": "133224cd90e41f52da144eede4dc9c09"
    },
    {
      "type": "Feature",
      "properties": {
        "Rowkey": "3927",
        "paddr": "17 Earthship Way",
        "Flag_Notes": "",
        "APName": "WolfSprings2",
        "APGroup": "WolfSprings",
        "ColorCode": "small_blue",
        "Strength": "26"
      },
      "geometry": {
        "coordinates": [
          -105.74775,
          36.51108
        ],
        "type": "Point"
      },
      "id": "134c97c6d4c36a2ed0d01fe9452b2b83"
    },
    {
      "type": "Feature",
      "properties": {
        "Rowkey": "2465",
        "paddr": "378 Vegas de Taos",
        "Flag_Notes": "",
        "APName": "BBHill9",
        "APGroup": "BBHill",
        "ColorCode": "small_red",
        "Strength": "84"
      },
      "geometry": {
        "coordinates": [
          -105.57448,
          36.38543
        ],
        "type": "Point"
      },
      "id": "13a6f7e93b3a2e46aebf25febbbd0416"
    },
    {
      "type": "Feature",
      "properties": {
        "Rowkey": "1426",
        "paddr": "flag Road 1 mile up Flag Rd",
        "Flag_Notes": "",
        "APName": "BBHill10",
        "APGroup": "BBHill",
        "ColorCode": "small_red",
        "Strength": "72"
      },
      "geometry": {
        "coordinates": [
          -105.7655,
          36.43329
        ],
        "type": "Point"
      },
      "id": "13c13524e759a354891c4ad0dfc7f649"
    },
    {
      "type": "Feature",
      "properties": {
        "Rowkey": "2125",
        "paddr": "#28 N. Lemuria",
        "Flag_Notes": "",
        "APName": "WolfSprings1",
        "APGroup": "WolfSprings",
        "ColorCode": "small_blue",
        "Strength": "66"
      },
      "geometry": {
        "coordinates": [
          -105.75274,
          36.51806
        ],
        "type": "Point"
      },
      "id": "13c7dc5af93acabe7789961d02e3c59f"
    },
    {
      "type": "Feature",
      "properties": {
        "Rowkey": "3510",
        "paddr": "7 Coyote Loop",
        "Flag_Notes": "",
        "APName": "BBHill8",
        "APGroup": "BBHill",
        "ColorCode": "small_red",
        "Strength": "31"
      },
      "geometry": {
        "coordinates": [
          -105.69302,
          36.51687
        ],
        "type": "Point"
      },
      "id": "13e72aecbf2286bbf419fc7e3d037987"
    },
    {
      "type": "Feature",
      "properties": {
        "Rowkey": "2372",
        "paddr": "11 Eototo Road",
        "Flag_Notes": "",
        "APName": "ElSalto2",
        "APGroup": "ElSalto",
        "ColorCode": "small_green",
        "Strength": "83"
      },
      "geometry": {
        "coordinates": [
          -105.6047,
          36.44493
        ],
        "type": "Point"
      },
      "id": "13eb15c8fe7627c81b8560bcca8516e7"
    },
    {
      "type": "Feature",
      "properties": {
        "Rowkey": "4020",
        "paddr": "50 Quatro Ruedas",
        "Flag_Notes": "",
        "APName": "Talpa2",
        "APGroup": "Talpa",
        "ColorCode": "small_yellow",
        "Strength": "54"
      },
      "geometry": {
        "coordinates": [
          -105.78353,
          36.35688
        ],
        "type": "Point"
      },
      "id": "13f39dd72b59d5ea843466e0031fe4ca"
    },
    {
      "type": "Feature",
      "properties": {
        "Rowkey": "3707",
        "paddr": "653 Don Nicholas",
        "Flag_Notes": "",
        "APName": "BBHill8",
        "APGroup": "BBHill",
        "ColorCode": "small_red",
        "Strength": "70"
      },
      "geometry": {
        "coordinates": [
          -105.55781,
          36.39871
        ],
        "type": "Point"
      },
      "id": "143a147c6a4561447c125c91241a7cf8"
    },
    {
      "type": "Feature",
      "properties": {
        "Rowkey": "3759",
        "paddr": "168 Blueberry Hill Rd.",
        "Flag_Notes": "",
        "APName": "BBHill11",
        "APGroup": "BBHill",
        "ColorCode": "small_red",
        "Strength": "47"
      },
      "geometry": {
        "coordinates": [
          -105.61915,
          36.41431
        ],
        "type": "Point"
      },
      "id": "145332cc1fa629326ab3fd67b63cab10"
    },
    {
      "type": "Feature",
      "properties": {
        "Rowkey": "3397",
        "paddr": "1224B Conejo Rd. off Tranquilino of MRM rd small house in back",
        "Flag_Notes": "",
        "APName": "ElSalto1",
        "APGroup": "ElSalto",
        "ColorCode": "small_green",
        "Strength": "47"
      },
      "geometry": {
        "coordinates": [
          -105.59939,
          36.43676
        ],
        "type": "Point"
      },
      "id": "145be68c88284352ba7bd8579be46430"
    },
    {
      "type": "Feature",
      "properties": {
        "Rowkey": "1597",
        "paddr": "122 los cordovas. House in back. green propanel",
        "Flag_Notes": "",
        "APName": "Stakeout1",
        "APGroup": "Stakeout",
        "ColorCode": "small_purple",
        "Strength": "92"
      },
      "geometry": {
        "coordinates": [
          -105.64259,
          36.38382
        ],
        "type": "Point"
      },
      "id": "14733b93947930aa35f45ceee30a53d1"
    },
    {
      "type": "Feature",
      "properties": {
        "Rowkey": "4019",
        "paddr": "63 Camino del Medio",
        "Flag_Notes": "",
        "APName": "WolfSprings2",
        "APGroup": "WolfSprings",
        "ColorCode": "small_blue",
        "Strength": "18"
      },
      "geometry": {
        "coordinates": [
          -105.6474,
          36.59455
        ],
        "type": "Point"
      },
      "id": "14eacf2aac80822768f5064c2522a845"
    },
    {
      "type": "Feature",
      "properties": {
        "Rowkey": "1074",
        "paddr": "3 Quail rd. off upper las colonias rd",
        "Flag_Notes": "",
        "APName": "ElSalto1",
        "APGroup": "ElSalto",
        "ColorCode": "small_green",
        "Strength": "81"
      },
      "geometry": {
        "coordinates": [
          -105.60279,
          36.46616
        ],
        "type": "Point"
      },
      "id": "151a33e497af5181837a5280f377ddbf"
    },
    {
      "type": "Feature",
      "properties": {
        "Rowkey": "1015",
        "paddr": "41 Los Altos in Seco",
        "Flag_Notes": "",
        "APName": "ElSalto2",
        "APGroup": "ElSalto",
        "ColorCode": "small_green",
        "Strength": "14"
      },
      "geometry": {
        "coordinates": [
          -105.56919,
          36.5292
        ],
        "type": "Point"
      },
      "id": "1533e4f51ac87e9431b5eeb996f125db"
    },
    {
      "type": "Feature",
      "properties": {
        "Rowkey": "2797",
        "paddr": "1377 Breis Way off Maestas North",
        "Flag_Notes": "",
        "APName": "BBHill8",
        "APGroup": "BBHill",
        "ColorCode": "small_red",
        "Strength": "34"
      },
      "geometry": {
        "coordinates": [
          -105.57871,
          36.36553
        ],
        "type": "Point"
      },
      "id": "15523943c4ac9133ac2a7181cb8415c2"
    },
    {
      "type": "Feature",
      "properties": {
        "Rowkey": "3242",
        "paddr": "Chanclas Rd",
        "Flag_Notes": "",
        "APName": "BBHill9",
        "APGroup": "BBHill",
        "ColorCode": "small_red",
        "Strength": "76"
      },
      "geometry": {
        "coordinates": [
          -105.6029,
          36.36603
        ],
        "type": "Point"
      },
      "id": "1558f06029a689310f1195698fe859be"
    },
    {
      "type": "Feature",
      "properties": {
        "Rowkey": "1688",
        "paddr": "143 mesa sea road",
        "Flag_Notes": "",
        "APName": "ElSalto2",
        "APGroup": "ElSalto",
        "ColorCode": "small_green",
        "Strength": "86"
      },
      "geometry": {
        "coordinates": [
          -105.66161,
          36.50453
        ],
        "type": "Point"
      },
      "id": "159c31a33acbe0dfa4490ef6fc28d1c8"
    },
    {
      "type": "Feature",
      "properties": {
        "Rowkey": "2161",
        "paddr": "61 Kachina rd Wheeler Peak Condos Building 1",
        "Flag_Notes": "",
        "APName": "Top7a1",
        "APGroup": "Top7a1",
        "ColorCode": "measle_turquoise",
        "Strength": "34"
      },
      "geometry": {
        "coordinates": [
          -105.43938,
          36.58044
        ],
        "type": "Point"
      },
      "id": "15a6aafc61506f124ee9194fd7f4b294"
    },
    {
      "type": "Feature",
      "properties": {
        "Rowkey": "162",
        "paddr": "#8 Tusa dr off Lower los colonias",
        "Flag_Notes": "",
        "APName": "BBHill7",
        "APGroup": "BBHill",
        "ColorCode": "small_red",
        "Strength": "48"
      },
      "geometry": {
        "coordinates": [
          -105.62586,
          36.4178
        ],
        "type": "Point"
      },
      "id": "15a94d1234b891a90b0dddfa0ef03f3d"
    },
    {
      "type": "Feature",
      "properties": {
        "Rowkey": "3914",
        "paddr": "#50 Colonias Point",
        "Flag_Notes": "",
        "APName": "TNN1",
        "APGroup": "TNN",
        "ColorCode": "measle_brown",
        "Strength": "39"
      },
      "geometry": {
        "coordinates": [
          -105.62633,
          36.4694
        ],
        "type": "Point"
      },
      "id": "15ee9b78dd891a671ff4a73381c6feec"
    },
    {
      "type": "Feature",
      "properties": {
        "Rowkey": "3248",
        "paddr": "205 Comanche Rd",
        "Flag_Notes": "",
        "APName": "TNN1",
        "APGroup": "TNN",
        "ColorCode": "measle_brown",
        "Strength": "100"
      },
      "geometry": {
        "coordinates": [
          -105.60234,
          36.46823
        ],
        "type": "Point"
      },
      "id": "161afd2dc3aceff162d4b4c9473c5841"
    },
    {
      "type": "Feature",
      "properties": {
        "Rowkey": "1919",
        "paddr": "Take Two peaks road. about a mile up on right is Montoya sheep Ranch road. Double propanel building Blue roof.",
        "Flag_Notes": "",
        "APName": "WolfSprings3",
        "APGroup": "WolfSprings",
        "ColorCode": "small_blue",
        "Strength": "82"
      },
      "geometry": {
        "coordinates": [
          -105.80226,
          36.48113
        ],
        "type": "Point"
      },
      "id": "164c800a53f249184aa777a31ec09e49"
    },
    {
      "type": "Feature",
      "properties": {
        "Rowkey": "2323",
        "paddr": "right before waste management on hwy 64",
        "Flag_Notes": "",
        "APName": "BBHill10",
        "APGroup": "BBHill",
        "ColorCode": "small_red",
        "Strength": "72"
      },
      "geometry": {
        "coordinates": [
          -105.57305,
          36.40706
        ],
        "type": "Point"
      },
      "id": "16b5f074e1e322a9560d90f4cecde3ad"
    },
    {
      "type": "Feature",
      "properties": {
        "Rowkey": "1389",
        "paddr": "103 state road 240",
        "Flag_Notes": "",
        "APName": "Talpa4",
        "APGroup": "Talpa",
        "ColorCode": "small_yellow",
        "Strength": "52"
      },
      "geometry": {
        "coordinates": [
          -105.61847,
          36.37201
        ],
        "type": "Point"
      },
      "id": "16bb756194908f140e33e9d711798c1a"
    },
    {
      "type": "Feature",
      "properties": {
        "Rowkey": "698",
        "paddr": "15 Wind Song rd off Blueberry hill",
        "Flag_Notes": "",
        "APName": "TNN3",
        "APGroup": "TNN",
        "ColorCode": "measle_brown",
        "Strength": "60"
      },
      "geometry": {
        "coordinates": [
          -105.6121,
          36.42613
        ],
        "type": "Point"
      },
      "id": "17038aabc0feff16eac2a16fb92fec5b"
    },
    {
      "type": "Feature",
      "properties": {
        "Rowkey": "1497",
        "paddr": "47 Spanish peaks road. Off b001. Top of hill Horse corral.",
        "Flag_Notes": "",
        "APName": "Hondo2",
        "APGroup": "Hondo",
        "ColorCode": "small_yellow",
        "Strength": "42"
      },
      "geometry": {
        "coordinates": [
          -105.68365,
          36.55583
        ],
        "type": "Point"
      },
      "id": "17153a96a37aad02c84ab1c04dda5cd1"
    },
    {
      "type": "Feature",
      "properties": {
        "Rowkey": "1441",
        "paddr": "350 Duval Road Turley Mill",
        "Flag_Notes": "",
        "APName": "WolfSprings2a",
        "APGroup": "WolfSprings",
        "ColorCode": "small_blue",
        "Strength": "70"
      },
      "geometry": {
        "coordinates": [
          -105.62319,
          36.56258
        ],
        "type": "Point"
      },
      "id": "17551dae531652a3cbf3e3bc5b5d5b56"
    },
    {
      "type": "Feature",
      "properties": {
        "Rowkey": "3817",
        "paddr": "110 Blueberry Hill",
        "Flag_Notes": "",
        "APName": "Stakeout3",
        "APGroup": "Stakeout",
        "ColorCode": "small_purple",
        "Strength": "72"
      },
      "geometry": {
        "coordinates": [
          -105.62224,
          36.40621
        ],
        "type": "Point"
      },
      "id": "176b2bbdd0776f38b7ffcc7fa8a79b1e"
    },
    {
      "type": "Feature",
      "properties": {
        "Rowkey": "259",
        "paddr": "1243 Rainbow St",
        "Flag_Notes": "",
        "APName": "Talpa3",
        "APGroup": "Talpa",
        "ColorCode": "small_yellow",
        "Strength": "4"
      },
      "geometry": {
        "coordinates": [
          -105.57617,
          36.3793
        ],
        "type": "Point"
      },
      "id": "179cee8d0392bb18a5ddb1be85cfdd5a"
    },
    {
      "type": "Feature",
      "properties": {
        "Rowkey": "1742",
        "paddr": "13 Coyote Loop Hondo. 2nd house on right",
        "Flag_Notes": "",
        "APName": "WolfSprings2a",
        "APGroup": "WolfSprings",
        "ColorCode": "small_blue",
        "Strength": "30"
      },
      "geometry": {
        "coordinates": [
          -105.68843,
          36.51943
        ],
        "type": "Point"
      },
      "id": "17a3e61face74d427d0f0cb53a86f389"
    },
    {
      "type": "Feature",
      "properties": {
        "Rowkey": "3714",
        "paddr": "5 Samantha Rd.",
        "Flag_Notes": "",
        "APName": "Stakeout3",
        "APGroup": "Stakeout",
        "ColorCode": "small_purple",
        "Strength": "10"
      },
      "geometry": {
        "coordinates": [
          -105.68006,
          36.35534
        ],
        "type": "Point"
      },
      "id": "17dc00ef7661ad345b9e5cb5c5aa13bc"
    },
    {
      "type": "Feature",
      "properties": {
        "Rowkey": "2686",
        "paddr": "18 Comanche Road Quail Ridge Condos Unit 30",
        "Flag_Notes": "",
        "APName": "Talpa3",
        "APGroup": "Talpa",
        "ColorCode": "small_yellow",
        "Strength": "40"
      },
      "geometry": {
        "coordinates": [
          -105.59516,
          36.46868
        ],
        "type": "Point"
      },
      "id": "1828ae0c8b0efaa3130542c8e42e11d5"
    },
    {
      "type": "Feature",
      "properties": {
        "Rowkey": "1979",
        "paddr": "46 Juan de Dios Rd",
        "Flag_Notes": "",
        "APName": "TNN4",
        "APGroup": "TNN",
        "ColorCode": "measle_brown",
        "Strength": "75"
      },
      "geometry": {
        "coordinates": [
          -105.55971,
          36.53404
        ],
        "type": "Point"
      },
      "id": "18925e8a78c3957c02a6989b8699d03a"
    },
    {
      "type": "Feature",
      "properties": {
        "Rowkey": "1930",
        "paddr": "55 Camino del Medio Well Marked Address",
        "Flag_Notes": "",
        "APName": "WolfSprings2",
        "APGroup": "WolfSprings",
        "ColorCode": "small_blue",
        "Strength": "97"
      },
      "geometry": {
        "coordinates": [
          -105.63647,
          36.59823
        ],
        "type": "Point"
      },
      "id": "1896ef36478783b4d2df37414add1e7a"
    },
    {
      "type": "Feature",
      "properties": {
        "Rowkey": "3950",
        "paddr": "251 West Rim Rd - Last house on road",
        "Flag_Notes": "",
        "APName": "WolfSprings3",
        "APGroup": "WolfSprings",
        "ColorCode": "small_blue",
        "Strength": "100"
      },
      "geometry": {
        "coordinates": [
          -105.73874,
          36.36773
        ],
        "type": "Point"
      },
      "id": "18d24143e757882fefb438232861fbfa"
    },
    {
      "type": "Feature",
      "properties": {
        "Rowkey": "2721",
        "paddr": "71 Archuleta road Talpa",
        "Flag_Notes": "",
        "APName": "Talpa1",
        "APGroup": "Talpa",
        "ColorCode": "small_yellow",
        "Strength": "28"
      },
      "geometry": {
        "coordinates": [
          -105.58903,
          36.34167
        ],
        "type": "Point"
      },
      "id": "18d702ce7bdf94b2a37d1fbed588375e"
    },
    {
      "type": "Feature",
      "properties": {
        "Rowkey": "1415",
        "paddr": "#50 Camino del Medio",
        "Flag_Notes": "",
        "APName": "WolfSprings2",
        "APGroup": "WolfSprings",
        "ColorCode": "small_blue",
        "Strength": "17"
      },
      "geometry": {
        "coordinates": [
          -105.63493,
          36.59911
        ],
        "type": "Point"
      },
      "id": "18db3b9bafbc4165f690e6b95ee1ecf8"
    },
    {
      "type": "Feature",
      "properties": {
        "Rowkey": "3086",
        "paddr": "71 BBHill Road",
        "Flag_Notes": "",
        "APName": "BBHill6",
        "APGroup": "BBHill",
        "ColorCode": "small_red",
        "Strength": "82"
      },
      "geometry": {
        "coordinates": [
          -105.62704,
          36.4
        ],
        "type": "Point"
      },
      "id": "18e1049bd81ba9fdee8f900baeabd733"
    },
    {
      "type": "Feature",
      "properties": {
        "Rowkey": "842",
        "paddr": "630 Paseo del Sur",
        "Flag_Notes": "",
        "APName": "HQ1",
        "APGroup": "HQ",
        "ColorCode": "small_blue",
        "Strength": "18"
      },
      "geometry": {
        "coordinates": [
          -105.58112,
          36.39439
        ],
        "type": "Point"
      },
      "id": "192ce50d1f5640c4f4e5108eb3e15009"
    },
    {
      "type": "Feature",
      "properties": {
        "Rowkey": "1586",
        "paddr": "309 duval road turley mill",
        "Flag_Notes": "",
        "APName": "Gallina1",
        "APGroup": "Gallina",
        "ColorCode": "measle_white",
        "Strength": "84"
      },
      "geometry": {
        "coordinates": [
          -105.62579,
          36.5578
        ],
        "type": "Point"
      },
      "id": "192f8a709e7f98a3009cebd5bb69ca7c"
    },
    {
      "type": "Feature",
      "properties": {
        "Rowkey": "2250",
        "paddr": "355 Los Cordovas Rd",
        "Flag_Notes": "",
        "APName": "Talpa4",
        "APGroup": "Talpa",
        "ColorCode": "small_yellow",
        "Strength": "78"
      },
      "geometry": {
        "coordinates": [
          -105.66052,
          36.36452
        ],
        "type": "Point"
      },
      "id": "193f94fecf71ad2ca979d462938e389c"
    },
    {
      "type": "Feature",
      "properties": {
        "Rowkey": "3868",
        "paddr": "222 Mariposa Ranch Rd",
        "Flag_Notes": "",
        "APName": "ElSalto2",
        "APGroup": "ElSalto",
        "ColorCode": "small_green",
        "Strength": "61"
      },
      "geometry": {
        "coordinates": [
          -105.61648,
          36.50094
        ],
        "type": "Point"
      },
      "id": "195da236d27fab904a64784d0b547d1d"
    },
    {
      "type": "Feature",
      "properties": {
        "Rowkey": "3477",
        "paddr": "3879 Hwy 68",
        "Flag_Notes": "",
        "APName": "Talpa4",
        "APGroup": "Talpa",
        "ColorCode": "small_yellow",
        "Strength": "24"
      },
      "geometry": {
        "coordinates": [
          -105.64983,
          36.33433
        ],
        "type": "Point"
      },
      "id": "196b334e8d7797e5424c57a7be09e49a"
    },
    {
      "type": "Feature",
      "properties": {
        "Rowkey": "1605",
        "paddr": "523 Hwy 196",
        "Flag_Notes": "",
        "APName": "Amalia1",
        "APGroup": "Amalia",
        "ColorCode": "small_purple",
        "Strength": "20"
      },
      "geometry": {
        "coordinates": [
          -105.45474,
          36.94212
        ],
        "type": "Point"
      },
      "id": "199968f67e8667a13459eab1612fbed6"
    },
    {
      "type": "Feature",
      "properties": {
        "Rowkey": "4006",
        "paddr": "537 A Hondo Seco Rd",
        "Flag_Notes": "",
        "APName": "ElSalto1",
        "APGroup": "ElSalto",
        "ColorCode": "small_green",
        "Strength": "22"
      },
      "geometry": {
        "coordinates": [
          -105.57646,
          36.51907
        ],
        "type": "Point"
      },
      "id": "19dc145256293a755c1ccde4f80dae4b"
    },
    {
      "type": "Feature",
      "properties": {
        "Rowkey": "3909",
        "paddr": "205 Camino De La Merced B2",
        "Flag_Notes": "",
        "APName": "VigilUbnt1",
        "APGroup": "VigilUbnt",
        "ColorCode": "measle_white",
        "Strength": "37"
      },
      "geometry": {
        "coordinates": [
          -105.58676,
          36.3864
        ],
        "type": "Point"
      },
      "id": "19f097b1edb7073f413dea4e42bb2775"
    },
    {
      "type": "Feature",
      "properties": {
        "Rowkey": "1191",
        "paddr": "1013 Camino del Monte. Take kit carson to Piedmont. Go left to end of road. Up Hill to 1013 (their driveway is on the right",
        "Flag_Notes": "",
        "APName": "BBHill8",
        "APGroup": "BBHill",
        "ColorCode": "small_red",
        "Strength": "10"
      },
      "geometry": {
        "coordinates": [
          -105.5778,
          36.38348
        ],
        "type": "Point"
      },
      "id": "19f3a428394b67421d1b21b4c3164f12"
    },
    {
      "type": "Feature",
      "properties": {
        "Rowkey": "1639",
        "paddr": "#72 st road 196 costilla",
        "Flag_Notes": "",
        "APName": "Amalia1",
        "APGroup": "Amalia",
        "ColorCode": "small_purple",
        "Strength": "64"
      },
      "geometry": {
        "coordinates": [
          -105.52848,
          36.97005
        ],
        "type": "Point"
      },
      "id": "1a90f1b960a2d2c221abca8e21a61ecf"
    },
    {
      "type": "Feature",
      "properties": {
        "Rowkey": "74",
        "paddr": "58 Deer Mesa Rd",
        "Flag_Notes": "",
        "APName": "Gallina1",
        "APGroup": "Gallina",
        "ColorCode": "measle_white",
        "Strength": "23"
      },
      "geometry": {
        "coordinates": [
          -105.59947,
          36.55098
        ],
        "type": "Point"
      },
      "id": "1a9b2d16081e989683d7049160527533"
    },
    {
      "type": "Feature",
      "properties": {
        "Rowkey": "1811",
        "paddr": "601 dolores rd",
        "Flag_Notes": "",
        "APName": "BBHill4",
        "APGroup": "BBHill",
        "ColorCode": "small_red",
        "Strength": "42"
      },
      "geometry": {
        "coordinates": [
          -105.6101,
          36.38243
        ],
        "type": "Point"
      },
      "id": "1ac6cc0c4696b49eb1ede383836754c6"
    },
    {
      "type": "Feature",
      "properties": {
        "Rowkey": "3052",
        "paddr": "122A Blueberry Hill Road",
        "Flag_Notes": "",
        "APName": "BBHill6",
        "APGroup": "BBHill",
        "ColorCode": "small_red",
        "Strength": "23"
      },
      "geometry": {
        "coordinates": [
          -105.62456,
          36.40458
        ],
        "type": "Point"
      },
      "id": "1ac76d05d535d3d98973342a8dbb9dd3"
    },
    {
      "type": "Feature",
      "properties": {
        "Rowkey": "2842",
        "paddr": "#101 Lobo Road",
        "Flag_Notes": "",
        "APName": "ElSalto4",
        "APGroup": "ElSalto",
        "ColorCode": "small_green",
        "Strength": "18"
      },
      "geometry": {
        "coordinates": [
          -105.60224,
          36.5084
        ],
        "type": "Point"
      },
      "id": "1b33561463c63bb9c57cb5bdc30100d9"
    },
    {
      "type": "Feature",
      "properties": {
        "Rowkey": "1393",
        "paddr": "#23 Carlitos Road San Christobal",
        "Flag_Notes": "",
        "APName": "SanCristobal1",
        "APGroup": "SanCristobal",
        "ColorCode": "small_green",
        "Strength": "78"
      },
      "geometry": {
        "coordinates": [
          -105.65074,
          36.58761
        ],
        "type": "Point"
      },
      "id": "1b730c489b1dcae528fe18b793455c71"
    },
    {
      "type": "Feature",
      "properties": {
        "Rowkey": "1863",
        "paddr": "155 mesa sea",
        "Flag_Notes": "",
        "APName": "TNN3",
        "APGroup": "TNN",
        "ColorCode": "measle_brown",
        "Strength": "43"
      },
      "geometry": {
        "coordinates": [
          -105.65906,
          36.50231
        ],
        "type": "Point"
      },
      "id": "1b75b0d64c59dfa7958cc6d17a400394"
    },
    {
      "type": "Feature",
      "properties": {
        "Rowkey": "3755",
        "paddr": "11 Blueberry Hill Rd",
        "Flag_Notes": "",
        "APName": "Talpa4",
        "APGroup": "Talpa",
        "ColorCode": "small_yellow",
        "Strength": "15"
      },
      "geometry": {
        "coordinates": [
          -105.62888,
          36.39343
        ],
        "type": "Point"
      },
      "id": "1bc183caab07ac751cb78778675aa50e"
    },
    {
      "type": "Feature",
      "properties": {
        "Rowkey": "2015",
        "paddr": "104 lower hondo road",
        "Flag_Notes": "",
        "APName": "Hondo3",
        "APGroup": "Hondo",
        "ColorCode": "small_yellow",
        "Strength": "69"
      },
      "geometry": {
        "coordinates": [
          -105.68119,
          36.53331
        ],
        "type": "Point"
      },
      "id": "1c02960b679262797d80e01c3a28709a"
    },
    {
      "type": "Feature",
      "properties": {
        "Rowkey": "3268",
        "paddr": "70 Calle Martinez",
        "Flag_Notes": "",
        "APName": "ElSalto2",
        "APGroup": "ElSalto",
        "ColorCode": "small_green",
        "Strength": "97"
      },
      "geometry": {
        "coordinates": [
          -105.5644,
          36.52665
        ],
        "type": "Point"
      },
      "id": "1c124bb0310f2557b0c8ecdae3bf8505"
    },
    {
      "type": "Feature",
      "properties": {
        "Rowkey": "29",
        "paddr": "745 Apple Court off Cruz Alta",
        "Flag_Notes": "",
        "APName": "BBHill11",
        "APGroup": "BBHill",
        "ColorCode": "small_red",
        "Strength": "9"
      },
      "geometry": {
        "coordinates": [
          -105.56784,
          36.38164
        ],
        "type": "Point"
      },
      "id": "1c4dff8ae5ae733f0d07a5e6d535e581"
    },
    {
      "type": "Feature",
      "properties": {
        "Rowkey": "2168",
        "paddr": "152 Ovejeros",
        "Flag_Notes": "",
        "APName": "ElSalto4",
        "APGroup": "ElSalto",
        "ColorCode": "small_green",
        "Strength": "73"
      },
      "geometry": {
        "coordinates": [
          -105.61873,
          36.46623
        ],
        "type": "Point"
      },
      "id": "1c53fb34f9bb7a813a89603e12fd99a2"
    },
    {
      "type": "Feature",
      "properties": {
        "Rowkey": "3930",
        "paddr": "11 Lobo Rd.",
        "Flag_Notes": "",
        "APName": "TNN4",
        "APGroup": "TNN",
        "ColorCode": "measle_brown",
        "Strength": "84"
      },
      "geometry": {
        "coordinates": [
          -105.60219,
          36.51933
        ],
        "type": "Point"
      },
      "id": "1cb54d68fb32a859816c04868058d3ef"
    },
    {
      "type": "Feature",
      "properties": {
        "Rowkey": "3251",
        "paddr": "3 Fork Rd",
        "Flag_Notes": "",
        "APName": "WolfSprings3",
        "APGroup": "WolfSprings",
        "ColorCode": "small_blue",
        "Strength": "19"
      },
      "geometry": {
        "coordinates": [
          -105.5976,
          36.49638
        ],
        "type": "Point"
      },
      "id": "1cb6ef1bdcf63b85908a00d6f243623e"
    },
    {
      "type": "Feature",
      "properties": {
        "Rowkey": "3809",
        "paddr": "1127 Juniper Rd",
        "Flag_Notes": "",
        "APName": "BBHill11",
        "APGroup": "BBHill",
        "ColorCode": "small_red",
        "Strength": "97"
      },
      "geometry": {
        "coordinates": [
          -105.56804,
          36.36996
        ],
        "type": "Point"
      },
      "id": "1ceffebb0384737360419c9edfa94934"
    },
    {
      "type": "Feature",
      "properties": {
        "Rowkey": "3859",
        "paddr": "1587 Old State Rd 3/S.C.",
        "Flag_Notes": "",
        "APName": "SanCristobal2",
        "APGroup": "SanCristobal",
        "ColorCode": "small_green",
        "Strength": "34"
      },
      "geometry": {
        "coordinates": [
          -105.6503,
          36.59504
        ],
        "type": "Point"
      },
      "id": "1cf5947d428fe09a2b94d209e8da458e"
    },
    {
      "type": "Feature",
      "properties": {
        "Rowkey": "2138",
        "paddr": "209 camino de la merced",
        "Flag_Notes": "",
        "APName": "Vigil3",
        "APGroup": "Vigil",
        "ColorCode": "measle_grey",
        "Strength": "69"
      },
      "geometry": {
        "coordinates": [
          -105.58882,
          36.38809
        ],
        "type": "Point"
      },
      "id": "1cf662ae9ba6761f67f7908da70c54f2"
    },
    {
      "type": "Feature",
      "properties": {
        "Rowkey": "664",
        "paddr": "40 Cordova Lane, San Cristobal",
        "Flag_Notes": "",
        "APName": "SanCristobal2",
        "APGroup": "SanCristobal",
        "ColorCode": "small_green",
        "Strength": "32"
      },
      "geometry": {
        "coordinates": [
          -105.65431,
          36.59443
        ],
        "type": "Point"
      },
      "id": "1d03a40dcb485c8aed070776a06b0b5a"
    },
    {
      "type": "Feature",
      "properties": {
        "Rowkey": "2611",
        "paddr": "#7 Blueberry Hill Road South",
        "Flag_Notes": "",
        "APName": "Talpa1",
        "APGroup": "Talpa",
        "ColorCode": "small_yellow",
        "Strength": "40"
      },
      "geometry": {
        "coordinates": [
          -105.62857,
          36.39417
        ],
        "type": "Point"
      },
      "id": "1d2728f9d8f95fb56b4e2f21af950619"
    },
    {
      "type": "Feature",
      "properties": {
        "Rowkey": "2438",
        "paddr": "#4 Rim View Road",
        "Flag_Notes": "",
        "APName": "Talpa1",
        "APGroup": "Talpa",
        "ColorCode": "small_yellow",
        "Strength": "6"
      },
      "geometry": {
        "coordinates": [
          -105.63335,
          36.37647
        ],
        "type": "Point"
      },
      "id": "1d30d988061f483af1e402806e23cb7c"
    },
    {
      "type": "Feature",
      "properties": {
        "Rowkey": "3055",
        "paddr": "16A Toda Vista",
        "Flag_Notes": "",
        "APName": "BBHill10",
        "APGroup": "BBHill",
        "ColorCode": "small_red",
        "Strength": "17"
      },
      "geometry": {
        "coordinates": [
          -105.64528,
          36.43295
        ],
        "type": "Point"
      },
      "id": "1d4a12dfe44447cefa7fe56e69a2f76e"
    },
    {
      "type": "Feature",
      "properties": {
        "Rowkey": "3983",
        "paddr": "32 D Camino de Caballo",
        "Flag_Notes": "",
        "APName": "Talpa3",
        "APGroup": "Talpa",
        "ColorCode": "small_yellow",
        "Strength": "29"
      },
      "geometry": {
        "coordinates": [
          -105.59185,
          36.35666
        ],
        "type": "Point"
      },
      "id": "1d581ae9c62142a286df75b8907a8d3b"
    },
    {
      "type": "Feature",
      "properties": {
        "Rowkey": "2741",
        "paddr": "16 Branchal Road",
        "Flag_Notes": "",
        "APName": "BBHill6",
        "APGroup": "BBHill",
        "ColorCode": "small_red",
        "Strength": "100"
      },
      "geometry": {
        "coordinates": [
          -105.60633,
          36.36564
        ],
        "type": "Point"
      },
      "id": "1da131dca2016d49c5833a15fb09ffbe"
    },
    {
      "type": "Feature",
      "properties": {
        "Rowkey": "385",
        "paddr": "Below bunny hill across from bumps",
        "Flag_Notes": "",
        "APName": "MineSlide3",
        "APGroup": "MineSlide",
        "ColorCode": "small_yellow",
        "Strength": "35"
      },
      "geometry": {
        "coordinates": [
          -105.45271,
          36.59589
        ],
        "type": "Point"
      },
      "id": "1dabaf79390cfaa383313e9e670ca833"
    },
    {
      "type": "Feature",
      "properties": {
        "Rowkey": "3309",
        "paddr": "41 twining road",
        "Flag_Notes": "",
        "APName": "MineSlide4",
        "APGroup": "MineSlide",
        "ColorCode": "small_yellow",
        "Strength": "30"
      },
      "geometry": {
        "coordinates": [
          -105.44503,
          36.59315
        ],
        "type": "Point"
      },
      "id": "1de64381c5e1db320e6df00ff7eb7858"
    },
    {
      "type": "Feature",
      "properties": {
        "Rowkey": "2395",
        "paddr": "#8 Pattison Loop TSV",
        "Flag_Notes": "",
        "APName": "MineSlide4",
        "APGroup": "MineSlide",
        "ColorCode": "small_yellow",
        "Strength": "79"
      },
      "geometry": {
        "coordinates": [
          -105.44594,
          36.59299
        ],
        "type": "Point"
      },
      "id": "1ded1fc7445612e9cca255a833496101"
    },
    {
      "type": "Feature",
      "properties": {
        "Rowkey": "2984",
        "paddr": "#3 Camino Coyote - Lower Las Colonias to Camino Coyote",
        "Flag_Notes": "",
        "APName": "BBHill7",
        "APGroup": "BBHill",
        "ColorCode": "small_red",
        "Strength": "60"
      },
      "geometry": {
        "coordinates": [
          -105.62122,
          36.43069
        ],
        "type": "Point"
      },
      "id": "1dfe16c3ecb5385a34f7d79c8ad1d2b3"
    },
    {
      "type": "Feature",
      "properties": {
        "Rowkey": "1778",
        "paddr": "54 Geranimo Lane",
        "Flag_Notes": "",
        "APName": "ElSalto1",
        "APGroup": "ElSalto",
        "ColorCode": "small_green",
        "Strength": "48"
      },
      "geometry": {
        "coordinates": [
          -105.56251,
          36.52588
        ],
        "type": "Point"
      },
      "id": "1e5d2cf971ffae3cf77c5da949322e60"
    },
    {
      "type": "Feature",
      "properties": {
        "Rowkey": "3671",
        "paddr": "10 Thunderbird Unit A",
        "Flag_Notes": "",
        "APName": "TSV4",
        "APGroup": "TSV",
        "ColorCode": "small_red",
        "Strength": "99"
      },
      "geometry": {
        "coordinates": [
          -105.44937,
          36.59563
        ],
        "type": "Point"
      },
      "id": "1ea474b93ab312e2984303460e949af5"
    },
    {
      "type": "Feature",
      "properties": {
        "Rowkey": "2426",
        "paddr": "#9 Mountain View Road off Deer MEsa",
        "Flag_Notes": "",
        "APName": "Gallina1",
        "APGroup": "Gallina",
        "ColorCode": "measle_white",
        "Strength": "77"
      },
      "geometry": {
        "coordinates": [
          -105.59885,
          36.54016
        ],
        "type": "Point"
      },
      "id": "1f1578aaeee611cde1252a9385b3a25a"
    },
    {
      "type": "Feature",
      "properties": {
        "Rowkey": "3341",
        "paddr": "1307 Half Moon Rd",
        "Flag_Notes": "",
        "APName": "ElSalto1",
        "APGroup": "ElSalto",
        "ColorCode": "small_green",
        "Strength": "52"
      },
      "geometry": {
        "coordinates": [
          -105.60035,
          36.43304
        ],
        "type": "Point"
      },
      "id": "1f53e4db4c3a8f3a81db339a63eb8429"
    },
    {
      "type": "Feature",
      "properties": {
        "Rowkey": "1732",
        "paddr": "35 Old La Lama Road",
        "Flag_Notes": "",
        "APName": "WolfSprings2a",
        "APGroup": "WolfSprings",
        "ColorCode": "small_blue",
        "Strength": "64"
      },
      "geometry": {
        "coordinates": [
          -105.62672,
          36.64695
        ],
        "type": "Point"
      },
      "id": "1f57dadc14d3ae000ea08dafd0eec0f3"
    },
    {
      "type": "Feature",
      "properties": {
        "Rowkey": "1899",
        "paddr": "northwest corner of trailer park",
        "Flag_Notes": "",
        "APName": "Vigil3",
        "APGroup": "Vigil",
        "ColorCode": "measle_grey",
        "Strength": "33"
      },
      "geometry": {
        "coordinates": [
          -105.58866,
          36.3865
        ],
        "type": "Point"
      },
      "id": "1f5bfb6907b228f2d67566fb03ce628a"
    },
    {
      "type": "Feature",
      "properties": {
        "Rowkey": "1524",
        "paddr": "#203 Wheeler Peak Condos",
        "Flag_Notes": "",
        "APName": "MineSlide1",
        "APGroup": "MineSlide",
        "ColorCode": "small_yellow",
        "Strength": "4"
      },
      "geometry": {
        "coordinates": [
          -105.43909,
          36.58045
        ],
        "type": "Point"
      },
      "id": "1f8353a12aa57c93ecab7f985cf3e760"
    },
    {
      "type": "Feature",
      "properties": {
        "Rowkey": "3702",
        "paddr": "309 Morgan Rd.",
        "Flag_Notes": "",
        "APName": "Talpa4",
        "APGroup": "Talpa",
        "ColorCode": "small_yellow",
        "Strength": "93"
      },
      "geometry": {
        "coordinates": [
          -105.5797,
          36.37113
        ],
        "type": "Point"
      },
      "id": "1f9493ecb7c0b97b74fd004151361c82"
    },
    {
      "type": "Feature",
      "properties": {
        "Rowkey": "2685",
        "paddr": "1011 La Vega Ln",
        "Flag_Notes": "",
        "APName": "Talpa3",
        "APGroup": "Talpa",
        "ColorCode": "small_yellow",
        "Strength": "43"
      },
      "geometry": {
        "coordinates": [
          -105.5978,
          36.4025
        ],
        "type": "Point"
      },
      "id": "1fb13a821ac8b7462a74d8bb0520fb1f"
    },
    {
      "type": "Feature",
      "properties": {
        "Rowkey": "2882",
        "paddr": "181 Los Cordovas Road directly accross OMI Sewer Plant up hill",
        "Flag_Notes": "",
        "APName": "Stakeout3",
        "APGroup": "Stakeout",
        "ColorCode": "small_purple",
        "Strength": "32"
      },
      "geometry": {
        "coordinates": [
          -105.65543,
          36.37406
        ],
        "type": "Point"
      },
      "id": "1fd13d13bc703742b78284ae02e45efe"
    },
    {
      "type": "Feature",
      "properties": {
        "Rowkey": "1141",
        "paddr": "630 Paseo de Pueblo Sur",
        "Flag_Notes": "",
        "APName": "HQ1",
        "APGroup": "HQ",
        "ColorCode": "small_blue",
        "Strength": "47"
      },
      "geometry": {
        "coordinates": [
          -105.58163,
          36.39466
        ],
        "type": "Point"
      },
      "id": "20028b482b69c94060c95756c533da0b"
    },
    {
      "type": "Feature",
      "properties": {
        "Rowkey": "3573",
        "paddr": "47 Luz Del Monte Sp. D",
        "Flag_Notes": "",
        "APName": "Stakeout3",
        "APGroup": "Stakeout",
        "ColorCode": "small_purple",
        "Strength": "9"
      },
      "geometry": {
        "coordinates": [
          -105.62102,
          36.44083
        ],
        "type": "Point"
      },
      "id": "2012b0e4a74a295f79a9de2eb9bdd2a2"
    },
    {
      "type": "Feature",
      "properties": {
        "Rowkey": "1881",
        "paddr": "tp Highway 285 south 9/10 mile. go right at B-128 all the way to sharp left turn. 1st house on right. green propanel",
        "Flag_Notes": "",
        "APName": "TresPiedras3",
        "APGroup": "TresPiedras",
        "ColorCode": "measle_white",
        "Strength": "69"
      },
      "geometry": {
        "coordinates": [
          -105.97472,
          36.63169
        ],
        "type": "Point"
      },
      "id": "201e4ee5ec3b3e82922a918a7c32710f"
    },
    {
      "type": "Feature",
      "properties": {
        "Rowkey": "3466",
        "paddr": "21 Rock Garden Gully",
        "Flag_Notes": "",
        "APName": "BBHill7",
        "APGroup": "BBHill",
        "ColorCode": "small_red",
        "Strength": "43"
      },
      "geometry": {
        "coordinates": [
          -105.60194,
          36.44739
        ],
        "type": "Point"
      },
      "id": "204ef684d164f4b2cb4bc509da0d4cff"
    },
    {
      "type": "Feature",
      "properties": {
        "Rowkey": "3354",
        "paddr": "14 Earthship Way",
        "Flag_Notes": "",
        "APName": "WolfSprings3",
        "APGroup": "WolfSprings",
        "ColorCode": "small_blue",
        "Strength": "65"
      },
      "geometry": {
        "coordinates": [
          -105.74871,
          36.51172
        ],
        "type": "Point"
      },
      "id": "205a68552f9babb44431156c65701e9b"
    },
    {
      "type": "Feature",
      "properties": {
        "Rowkey": "1305",
        "paddr": "111 Vista Lane off Gusdorf behind theater",
        "Flag_Notes": "",
        "APName": "VigilUbnt1",
        "APGroup": "VigilUbnt",
        "ColorCode": "measle_white",
        "Strength": "4"
      },
      "geometry": {
        "coordinates": [
          -105.58464,
          36.38361
        ],
        "type": "Point"
      },
      "id": "207834622960b089d3fb30a06b48d7f8"
    },
    {
      "type": "Feature",
      "properties": {
        "Rowkey": "2549",
        "paddr": "314 Ravens Rift Flag Raod",
        "Flag_Notes": "",
        "APName": "BBHill10",
        "APGroup": "BBHill",
        "ColorCode": "small_red",
        "Strength": "39"
      },
      "geometry": {
        "coordinates": [
          -105.82771,
          36.53958
        ],
        "type": "Point"
      },
      "id": "2080531c595e705d7b0809128ca3ca95"
    },
    {
      "type": "Feature",
      "properties": {
        "Rowkey": "3006",
        "paddr": "base of bunny hill",
        "Flag_Notes": "",
        "APName": "MineSlide2",
        "APGroup": "MineSlide",
        "ColorCode": "small_yellow",
        "Strength": "34"
      },
      "geometry": {
        "coordinates": [
          -105.45326,
          36.59596
        ],
        "type": "Point"
      },
      "id": "209720164c8dfcb0dc7ca8d92e15f8dc"
    },
    {
      "type": "Feature",
      "properties": {
        "Rowkey": "3505",
        "paddr": "337 Espinoza",
        "Flag_Notes": "",
        "APName": "Stakeout3",
        "APGroup": "Stakeout",
        "ColorCode": "small_purple",
        "Strength": "48"
      },
      "geometry": {
        "coordinates": [
          -105.58747,
          36.35871
        ],
        "type": "Point"
      },
      "id": "209ca2040ca80419175436bc5e0572da"
    },
    {
      "type": "Feature",
      "properties": {
        "Rowkey": "3079",
        "paddr": "1520 Mesa Vista Road",
        "Flag_Notes": "",
        "APName": "BBHill7",
        "APGroup": "BBHill",
        "ColorCode": "small_red",
        "Strength": "6"
      },
      "geometry": {
        "coordinates": [
          -105.60627,
          36.44072
        ],
        "type": "Point"
      },
      "id": "20d52849780c5e3485157f2235ffee48"
    },
    {
      "type": "Feature",
      "properties": {
        "Rowkey": "3515",
        "paddr": "26 Colorado Road",
        "Flag_Notes": "",
        "APName": "TresPiedras3",
        "APGroup": "TresPiedras",
        "ColorCode": "measle_white",
        "Strength": "3"
      },
      "geometry": {
        "coordinates": [
          -105.91055,
          36.63425
        ],
        "type": "Point"
      },
      "id": "20f9e98ebb14f9962c4b933cf777f6ad"
    },
    {
      "type": "Feature",
      "properties": {
        "Rowkey": "3208",
        "paddr": "58A Hondo Seco Rd",
        "Flag_Notes": "",
        "APName": "Hondo2",
        "APGroup": "Hondo",
        "ColorCode": "small_yellow",
        "Strength": "43"
      },
      "geometry": {
        "coordinates": [
          -105.66182,
          36.53488
        ],
        "type": "Point"
      },
      "id": "20ff6d3706ea2159b7f0e00181336718"
    },
    {
      "type": "Feature",
      "properties": {
        "Rowkey": "2152",
        "paddr": "90 Los Rios Rd.",
        "Flag_Notes": "",
        "APName": "WolfSprings2",
        "APGroup": "WolfSprings",
        "ColorCode": "small_blue",
        "Strength": "1"
      },
      "geometry": {
        "coordinates": [
          -105.66498,
          36.51537
        ],
        "type": "Point"
      },
      "id": "211aca5a7dc16d1994dfef84f7065fc4"
    },
    {
      "type": "Feature",
      "properties": {
        "Rowkey": "661",
        "paddr": "462A Hondo Seco Rd just east of crossroads",
        "Flag_Notes": "",
        "APName": "ElSalto3",
        "APGroup": "ElSalto",
        "ColorCode": "small_green",
        "Strength": "16"
      },
      "geometry": {
        "coordinates": [
          -105.59506,
          36.52205
        ],
        "type": "Point"
      },
      "id": "212ad5c32950a9d8e5e36d819497dbdd"
    },
    {
      "type": "Feature",
      "properties": {
        "Rowkey": "1694",
        "paddr": "58 lorien el rito",
        "Flag_Notes": "",
        "APName": "ElRito2",
        "APGroup": "ElRito",
        "ColorCode": "small_red",
        "Strength": "89"
      },
      "geometry": {
        "coordinates": [
          -105.57357,
          36.80567
        ],
        "type": "Point"
      },
      "id": "2131ad4c6f3b9a2af73a85e5634653e4"
    },
    {
      "type": "Feature",
      "properties": {
        "Rowkey": "2568",
        "paddr": "193 Tune Dr",
        "Flag_Notes": "",
        "APName": "ElSalto1",
        "APGroup": "ElSalto",
        "ColorCode": "small_green",
        "Strength": "38"
      },